zpid,city,state,homeStatus,streetAddress,zipcode,bedrooms,bathrooms,price,longitude,latitude,homeType,lotSize,zestimate,rentZestimate,dateSoldString,taxAssessedValue,taxAssessedYear,parcelId
63662682,Greer,SC,SOLD,1008 Carriage Park Cir,29650,4.0,3.0,415000,-82.27929,34.86798,SINGLE_FAMILY,9583.0,581300.0,3153,2021-09-28,402970.0,2023.0,0534410100500
5716098,Lexington,NC,SOLD,1309 Riverwood Dr,27292,3.0,3.0,375000,-80.29264,35.654854,SINGLE_FAMILY,80586.0,447100.0,1900,2022-09-02,262980.0,2023.0,06036L0000006000
29134937,Arlington,TX,SOLD,1418 Cardinal St,76010,4.0,2.0,0,-97.08692,32.724987,SINGLE_FAMILY,9147.0,240000.0,1802,2022-05-25,213321.0,2023.0,03243176
101673757,Bayport,MN,OTHER,945 Inspiration Pkwy S,55003,4.0,3.0,571000,-92.787865,45.012478,SINGLE_FAMILY,10018.0,571000.0,2999,2017-11-14,516300.0,2023.0,1002920420081
49400095,Rainier,WA,OTHER,802 Tipsoo Loop S,98576,3.0,1.25,469900,-122.68318,46.89975,MANUFACTURED,67082.0,469900.0,2114,2000-11-15,429900.0,2023.0,63550014200
43903503,Miami Beach,FL,OTHER,926 Michigan Ave APT 8,33139,1.0,1.0,276700,-80.13882,25.779856,CONDO,,276700.0,1485,2011-06-16,186945.0,2023.0,0242030430080
9281301,Mechanicsburg,PA,OTHER,165 State Rd,17050,2.0,1.0,202800,-77.04897,40.218605,SINGLE_FAMILY,11324.0,202800.0,1688,1994-07-21,120900.0,2023.0,38210295039
53850468,Portland,OR,OTHER,2021 N Dekum St,97217,3.0,1.0,447700,-122.68792,45.571983,SINGLE_FAMILY,5940.0,447700.0,2397,1998-04-13,142300.0,2023.0,R146124
296353253,Aiken,SC,SOLD,117 Pinckney Pl,29803,4.0,4.0,450000,-81.75177,33.499054,SINGLE_FAMILY,15245.0,534800.0,3425,2022-01-03,18330.0,2023.0,1070915001
2064172852,Buckeye,AZ,SOLD,26552 W Taro Dr,85396,2.0,3.0,583990,-112.62325,33.65912,SINGLE_FAMILY,6050.0,580600.0,2399,2022-07-19,,,51012741
194539976,Saint Francisville,LA,SOLD,5792 Sweet Olive Ln,70775,3.0,4.0,0,-91.2538,30.800894,TOWNHOUSE,2178.0,280700.0,1679,2022-06-30,23000.0,2022.0,100002156R
48538172,Beaverton,OR,OTHER,6890 SW 168th Pl,97007,3.0,3.0,638600,-122.849625,45.4699,SINGLE_FAMILY,9583.0,638600.0,2997,2020-05-20,357830.0,2022.0,1S119AD02800
78855922,Victoria,TX,OTHER,103 Bedivere Dr,77904,4.0,2.0,296400,-96.99064,28.852695,SINGLE_FAMILY,11761.0,296400.0,1849,2018-11-20,255298.0,2023.0,1370001800300
250150329,Crowley,TX,SOLD,13625 Founders Ln,76036,4.0,3.0,0,-97.3835,32.5587,SINGLE_FAMILY,6185.0,366400.0,2982,2022-11-28,351910.0,2023.0,42202734
93946401,Nevada,IA,RECENTLY_SOLD,1320 11th St,50201,3.0,1.0,123000,-93.44577,42.024235,SINGLE_FAMILY,8276.0,160800.0,1250,2023-07-19,98400.0,2023.0,1106485540
38837763,Annandale,NJ,OTHER,112 Westchester Ter #910,08801,2.0,2.0,364500,-74.88819,40.63019,SINGLE_FAMILY,,364500.0,2764,2010-04-01,187400.0,2023.0,060007902000080910C0910
35132137,Lakeside Marblehead,OH,OTHER,1014 Lakeview Dr,43440,3.0,2.5,578200,-82.73792,41.543015,SINGLE_FAMILY,11040.0,578200.0,4122,2003-03-14,122830.0,2022.0,0152111034836000
124447758,Meridian,ID,OTHER,7150 N Moon Drummer Way,83646,5.0,4.0,1355900,-116.444145,43.669716,SINGLE_FAMILY,14983.0,1355900.0,5645,2020-08-31,1287600.0,2023.0,R3581670150
35398146,Stow,OH,SOLD,3068 Kent Rd APT 301,44224,1.0,1.0,38500,-81.44837,41.153397,CONDO,766.0,79300.0,874,2023-01-30,18271.0,2022.0,5612354
59433762,Las Vegas,NV,OTHER,7712 Seagull Ave,89145,2.0,2.0,327000,-115.26283,36.16485,SINGLE_FAMILY,4791.0,327000.0,1764,2013-08-29,52001.0,2024.0,13833711039
81092040,Oakland,TN,OTHER,245 Running Brook Ln,38060,5.0,3.0,419300,-89.51186,35.232346,SINGLE_FAMILY,43560.0,419300.0,2693,2017-05-12,76100.0,2023.0,087HC03700000
84301157,Marietta,OK,OTHER,405 S Candlewood Ave,73448,3.0,2.0,123700,-97.1133,33.93278,MANUFACTURED,15000.0,123700.0,1344,2006-07-26,4869.0,2023.0,108500002001000000
43143047,Davie,FL,OTHER,14051 SW 17th St,33325,5.0,4.0,1333700,-80.33636,26.099104,SINGLE_FAMILY,35110.0,1333700.0,7792,2018-07-18,551270.0,2023.0,504015010134
23232081,Vancouver,WA,OTHER,3517 Grant St,98660,2.0,1.0,446900,-122.67795,45.64753,SINGLE_FAMILY,5349.0,446900.0,1994,1975-08-01,438766.0,2023.0,004480000
15781015,Santa Rosa,CA,OTHER,2428 Santa Cruz Ct,95401,4.0,3.0,743600,-122.76638,38.430023,SINGLE_FAMILY,5662.0,743600.0,3750,1996-09-13,288445.0,2023.0,035480025000
21131053,Lakewood,CA,OTHER,11522 215th St APT 4,90715,2.0,3.0,597900,-118.08755,33.83375,CONDO,22160.0,597900.0,2999,2019-04-26,444961.0,2023.0,7060022034
71974119,Grove City,OH,SOLD,1478 Carnoustie Cir,43123,4.0,3.0,415000,-83.04295,39.870384,SINGLE_FAMILY,9583.0,486000.0,2829,2021-08-31,133220.0,2023.0,040012839
33899815,Columbus,OH,OTHER,193 E Kanawha Ave,43214,3.0,2.0,382500,-83.01354,40.070618,SINGLE_FAMILY,8712.0,382500.0,2149,2017-03-08,96810.0,2023.0,01011049200
47258807,Saint Petersburg,FL,OTHER,5327 54th Ave N,33709,2.0,1.0,283700,-82.70575,27.821293,SINGLE_FAMILY,6650.0,283700.0,2078,2008-06-26,64814.0,2022.0,333016868680020020
35025387,Dayton,OH,OTHER,2250 Avalon Ave,45409,2.0,1.0,229900,-84.19388,39.72314,SINGLE_FAMILY,6490.0,229900.0,1227,2013-10-23,39630.0,2022.0,N64003010041
107183264,Beatrice,NE,OTHER,2025 Market St,68310,2.0,1.75,160300,-96.725975,40.264538,SINGLE_FAMILY,7800.0,160300.0,1014,2004-07-29,121425.0,2023.0,012573000
55143216,Highland Village,TX,SOLD,110 N Clearwater Dr,75077,3.0,3.0,0,-97.051895,33.09238,SINGLE_FAMILY,10890.0,512200.0,2795,2023-04-05,454780.0,2023.0,R04418
44902793,Tampa,FL,OTHER,4014 Carrollwood Village Dr,33618,4.0,2.5,809100,-82.509094,28.063606,SINGLE_FAMILY,20037.0,809100.0,4602,2014-10-20,390753.0,2022.0,1828090YE000001000010U
97245487,Bowling Green,KY,OTHER,196 Rigelwood Ln,42101,4.0,3.5,466600,-86.50695,36.987064,SINGLE_FAMILY,43560.0,466600.0,2729,2002-01-19,240000.0,2020.0,028B06A001
2072437845,Madison,AL,SOLD,120 Gary Allen Blvd,35757,4.0,4.0,407787,-86.74598,34.807224,SINGLE_FAMILY,9147.0,456800.0,2624,2022-02-21,,,00000
25960814,North Highlands,CA,OTHER,6524 Channing Dr,95660,3.0,1.0,371000,-121.38038,38.68595,SINGLE_FAMILY,5662.0,371000.0,2199,2002-06-05,387600.0,2023.0,20003330120000
18952149,Lamont,CA,OTHER,9904 San Fernando St,93241,3.0,2.0,268300,-118.92141,35.2652,SINGLE_FAMILY,6098.0,268300.0,1900,2012-02-29,78461.0,2023.0,18607207
30316943,East Concord,NY,OTHER,11207 Springville Boston Rd,14141,3.0,1.5,216600,-78.69289,42.57934,SINGLE_FAMILY,44430.0,216600.0,2169,2007-08-14,51900.0,2023.0,1438892910024
47329203,Winter Haven,FL,OTHER,800 Water Oaks Dr,33880,,,115200,-81.726585,27.968609,MANUFACTURED,7740.0,115200.0,693,2019-03-08,30468.0,2022.0,262909687042000010
20387714,Playa Del Rey,CA,RECENTLY_SOLD,8707 Falmouth Ave UNIT 317,90293,1.0,1.0,687000,-118.43565,33.95433,CONDO,136647.0,712200.0,3034,2023-09-14,664815.0,2023.0,4118008081
83691990,Macomb,MI,SOLD,16659 Angela Dr,48044,4.0,3.0,340000,-82.955505,42.65195,SINGLE_FAMILY,11761.0,419500.0,2689,2021-11-18,155400.0,2023.0,0829152001
9244744,Mechanicsburg,PA,OTHER,880 Acri Rd,17050,4.0,3.0,475300,-76.94449,40.258236,SINGLE_FAMILY,11761.0,475300.0,2768,1993-03-30,246800.0,2023.0,09181310170
5987169,Greensboro,NC,OTHER,3239 Hines Chapel Rd,27405,2.0,1.0,177800,-79.71749,36.1263,SINGLE_FAMILY,23958.0,177800.0,1250,2005-05-26,109200.0,2023.0,127029
338097564,Vacaville,CA,SOLD,255 Gannet St,95688,5.0,3.0,786030,-122.02531,38.41744,SINGLE_FAMILY,5601.0,830900.0,3814,2021-11-15,801720.0,2023.0,0106326070
82340511,Ashland,OR,SOLD,376 Crowson Rd,97520,3.0,2.0,720000,-122.65603,42.17419,SINGLE_FAMILY,179903.0,756000.0,2214,2022-06-06,492390.0,2023.0,10116475
245945370,Campobello,SC,RECENTLY_SOLD,125 Rhonda Rd,29322,,2.0,105000,-82.12528,35.124577,SINGLE_FAMILY,265716.0,479900.0,2704,2023-06-29,8232.0,2023.0,1210004703
40924717,Ashland City,TN,RECENTLY_SOLD,3229 Caldwell Rd,37015,3.0,2.0,300000,-86.99458,36.22029,SINGLE_FAMILY,56628.0,317200.0,2268,2023-12-05,43625.0,2022.0,064    00901 000
6481148,Fuquay Varina,NC,OTHER,103 Rocktree Ct,27526,3.0,2.0,384100,-78.787926,35.558933,SINGLE_FAMILY,82764.0,384100.0,1856,2020-06-02,207232.0,2023.0,0665380369
10775511,Anderson,SC,OTHER,2082 Centerville Rd,29625,3.0,2.0,353200,-82.74486,34.545612,SINGLE_FAMILY,36590.0,353200.0,2070,2015-10-19,11630.0,2022.0,0671502003
97759204,West Jordan,UT,OTHER,4659 W Greensand Dr,84084,3.0,3.0,393200,-112.00191,40.6219,TOWNHOUSE,435.0,393200.0,1891,2016-11-15,210705.0,2023.0,21301050540000
49743148,Bentleyville,PA,OTHER,1124 Old West Rd,15314,4.0,1.0,209000,-80.00769,40.101585,SINGLE_FAMILY,87120.0,209000.0,1200,2013-03-27,119500.0,2023.0,0400070000000205
94880094,Oxford,NC,OTHER,4139 Blue Mountain Rd,27565,4.0,4.0,809900,-78.79264,36.240974,SINGLE_FAMILY,507038.0,809900.0,3446,2018-03-23,449548.0,2022.0,096000161724
35232250,Clinton,OH,SOLD,8741 Wonderland Ave NW,44216,3.0,2.0,242500,-81.52486,40.907883,SINGLE_FAMILY,27839.0,286900.0,1951,2022-05-31,61610.0,2023.0,01602359
75357611,Williamsburg,VA,OTHER,4019 Mill Dam Ct,23188,3.0,2.0,463900,-76.78033,37.324776,SINGLE_FAMILY,10933.0,463900.0,2696,2008-08-26,326500.0,2023.0,3110900129
245230226,Dallas,TX,SOLD,8215 Nunley Ln,75231,3.0,3.0,0,-96.76286,32.890423,SINGLE_FAMILY,2221.0,644100.0,3499,2023-02-15,602390.0,2023.0,006138000C0500000
52347625,Lick,WV,SOLD,207 Defazio Dr,26755,3.0,2.0,540000,-78.73902,39.187244,SINGLE_FAMILY,1527213.0,610000.0,3334,2021-12-29,119140.0,2023.0,09  20002100030000
83665565,Eastpointe,MI,OTHER,22505 Tuscany Ave,48021,3.0,1.5,137200,-82.94089,42.464085,SINGLE_FAMILY,4356.0,137200.0,1535,2009-12-29,47500.0,2023.0,021432126026
83128791,McKinney,TX,RECENTLY_SOLD,900 Navajo Dr,75072,6.0,4.0,0,-96.676125,33.187305,SINGLE_FAMILY,14200.0,824800.0,4250,2024-06-28,644981.0,2023.0,R937700A02101
93290463,Red Oak,OK,SOLD,206 SE Oak St,74563,2.0,1.0,47000,-95.077446,34.94822,SINGLE_FAMILY,7749.0,61000.0,842,2022-11-03,5264.0,2023.0,200100018001000000
20265703,Palmdale,CA,OTHER,5243 Linden Ct,93552,4.0,3.0,517700,-118.035095,34.55276,SINGLE_FAMILY,5674.0,517700.0,3497,2021-02-09,426563.0,2023.0,3051039046
22179980,Tulsa,OK,OTHER,10912 E 28th Pl,74129,3.0,2.0,182000,-95.85438,36.123085,SINGLE_FAMILY,7579.0,182000.0,1579,2018-01-12,10569.0,2023.0,44050941807650
70890963,Columbia,MO,OTHER,4909 Thornbrook Rdg,65203,5.0,3.5,557900,-92.4093,38.895348,SINGLE_FAMILY,33541.0,557900.0,3255,2012-09-10,66082.0,2023.0,2010000013920001
30118796,Millerton,NY,OTHER,6057 Route 22,12546,2.0,1.0,251700,-73.52311,41.964077,SINGLE_FAMILY,35719.0,251700.0,2199,1975-06-11,186400.0,2023.0,1338897271090216590000
38737037,Verona,NJ,OTHER,70 Pine St,07044,3.0,2.0,651300,-74.253204,40.83509,SINGLE_FAMILY,6534.0,651300.0,3800,2016-09-27,322400.0,2022.0,2001604000000002
88241599,Detroit,MI,SOLD,16247 Coyle St,48235,3.0,1.0,110000,-83.19448,42.411026,SINGLE_FAMILY,4356.0,122900.0,1217,2023-01-09,16600.0,2023.0,W22I045401S
24896343,San Leandro,CA,OTHER,14519 Tiburon Rd,94577,5.0,2.0,989200,-122.174576,37.69337,SINGLE_FAMILY,5662.0,989200.0,3994,2020-10-15,692178.0,2023.0,80G92940
67628725,Ovilla,TX,OTHER,4077 Windmill Ridge Cir,75154,4.0,3.0,518700,-96.89262,32.50124,SINGLE_FAMILY,43690.0,518700.0,2731,2020-08-05,445050.0,2023.0,00926200105000108
77757958,Houma,LA,OTHER,612 Mary Hughes Dr,70363,3.0,2.0,201400,-90.695015,29.573376,SINGLE_FAMILY,3049200.0,201400.0,1834,2020-03-11,13590.0,2022.0,24715
43301216,Pembroke Pines,FL,OTHER,7010 SW 9th St,33023,3.0,2.0,575700,-80.22787,26.00203,SINGLE_FAMILY,6969.0,575700.0,3259,2021-04-01,408040.0,2023.0,514123062380
2529092,Dardenne Prairie,MO,OTHER,1602 Duvall Ct,63368,4.0,3.0,480500,-90.72639,38.772697,SINGLE_FAMILY,78843.0,480500.0,2941,2019-09-10,73592.0,2023.0,2012343360000010000000
54061343,Rising Fawn,GA,OTHER,75 Coal Mine Rd,30738,,1.0,167500,-85.44594,34.8352,SINGLE_FAMILY,76665.0,167500.0,1690,2009-06-01,39813.0,2022.0,0227003
89867292,Bradenton,FL,OTHER,7112 Chatum Light Run,34212,4.0,3.0,428400,-82.46898,27.499826,SINGLE_FAMILY,7490.0,428400.0,3298,2008-07-23,141958.0,2023.0,1108612759
2060296685,Sanford,FL,SOLD,1382 Captiva Cv,32771,4.0,3.0,410000,-81.3361,28.830374,TOWNHOUSE,1916.0,426500.0,2566,2023-06-21,54000.0,2023.0,1719305VW00000410
47169540,Saint Petersburg,FL,OTHER,7937 3rd Ave S,33707,,2.0,1026800,-82.74882,27.76661,SINGLE_FAMILY,7492.0,1026800.0,5354,2020-03-03,296123.0,2022.0,243115840420100080
9913987,Cheltenham,PA,OTHER,141 Kingston Rd,19012,4.0,2.5,430100,-75.11218,40.070408,SINGLE_FAMILY,13939.0,430100.0,3449,2003-12-19,156000.0,2023.0,310016213001
118482999,Aldie,VA,OTHER,42199 Shorecrest Ter,20105,3.0,3.0,499400,-77.54347,38.936672,CONDO,,499400.0,2800,2020-04-07,422240.0,2023.0,204288448010
31456346,North Tonawanda,NY,OTHER,1295 Fairfax Ave,14120,4.0,3.0,327100,-78.8515,43.05836,SINGLE_FAMILY,9147.0,327100.0,2605,2017-08-09,140000.0,2023.0,29120017615664
86095827,Cleveland,OK,OTHER,9 Azalea Ln,74020,2.0,1.0,198500,-96.309326,36.209507,SINGLE_FAMILY,873378.0,198500.0,1071,2000-08-21,5217.0,2023.0,00001420N09E100700
101548661,Des Moines,IA,OTHER,3660 Grand Ave UNIT 1020,50312,2.0,3.0,337200,-93.66617,41.58434,CONDO,,337200.0,2180,2019-05-31,256500.0,2022.0,09006650034000
34975094,Dayton,OH,RECENTLY_SOLD,5141 Retford Dr,45417,3.0,2.0,750,-84.27536,39.725243,SINGLE_FAMILY,7840.0,112300.0,1567,2024-01-09,21770.0,2022.0,G27245140064
23610252,Bellingham,WA,OTHER,66 Marigold Dr,98229,3.0,3.0,916500,-122.321144,48.714054,SINGLE_FAMILY,,916500.0,2614,1999-10-18,905898.0,2023.0,3704083694650000
13030110,Englewood,CO,OTHER,3361 S Logan St,80113,2.0,2.0,611200,-104.98326,39.655533,SINGLE_FAMILY,6098.0,611200.0,2700,2018-02-23,44812.0,2023.0,197134421016
92134725,Gurley,AL,OTHER,155 McMullen Rd,35748,3.0,2.0,250900,-86.41106,34.694614,SINGLE_FAMILY,29637.0,250900.0,1784,2020-04-29,15760.0,2023.0,1905150000016000
233485466,Saint Helen,MI,OTHER,10803 Beaver Rd,48656,2.0,1.0,111800,-84.39388,44.372276,SINGLE_FAMILY,10018.0,111800.0,1426,2019-09-27,30500.0,2023.0,0104152200000
252177619,Cookeville,TN,OTHER,250 Cypress Rdg,38506,1.0,1.0,233800,-85.45881,36.20706,TOWNHOUSE,,233800.0,1164,2020-10-16,34475.0,2023.0,026GC00100000
6730680,Albuquerque,NM,PRE_FORECLOSURE,919 Western Meadows Ct NW,87114,2.0,2.0,391400,-106.62909,35.196167,SINGLE_FAMILY,19602.0,391400.0,2169,2024-05-30,84539.0,2023.0,101506530726920216
52976559,Rancho Cucamonga,CA,SOLD,11768 Congress Dr,91730,4.0,3.0,850000,-117.54837,34.116646,SINGLE_FAMILY,4400.0,908100.0,3882,2022-04-19,867000.0,2023.0,1090131400000
60833880,Norcross,GA,OTHER,2725 Langford Commons Dr,30071,3.0,3.0,363000,-84.20317,33.953667,TOWNHOUSE,2178.0,363000.0,2327,2019-08-28,117040.0,2023.0,6256280
43709607,Orange Park,FL,OTHER,2780 Brookwood Rd,32073,4.0,3.0,332400,-81.74303,30.146973,SINGLE_FAMILY,16073.0,332400.0,2294,2012-11-21,129478.0,2022.0,42042601396000000
43222904,Fort Lauderdale,FL,OTHER,5314 SW 29th Ter,33312,2.0,1.5,192400,-80.17997,26.056158,MANUFACTURED,3200.0,192400.0,2299,1984-10-01,60390.0,2023.0,504232341860
20230216,Santa Clarita,CA,PENDING,26382 Oak Plain Dr,91321,2.0,2.0,539000,-118.47959,34.401623,CONDO,573040.0,545600.0,2850,2018-04-23,289374.0,2023.0,2864010067
28407380,Houston,TX,OTHER,12210 Flaxen Dr,77065,3.0,2.0,254000,-95.599915,29.90935,SINGLE_FAMILY,6098.0,254000.0,1924,2017-05-19,221033.0,2023.0,1148330080027
24395914,Waterford,MI,SOLD,5766 Kings Arms Rd,48327,4.0,2.0,195000,-83.39737,42.62455,SINGLE_FAMILY,10411.0,268800.0,1949,2022-10-10,83800.0,2023.0,1333178025
42895304,Deerfield Beach,FL,OTHER,4415 NW 5th Ave,33064,2.0,2.0,285400,-80.12996,26.286818,SINGLE_FAMILY,4251.0,285400.0,2395,2000-06-02,118250.0,2023.0,484214122740
60379923,Lorton,VA,OTHER,7321 Ardglass Dr,22079,3.0,3.0,614200,-77.195465,38.712948,TOWNHOUSE,1738.0,614200.0,3255,2017-04-17,538380.0,2023.0,1081090161A
31941367,Long Island City,NY,OTHER,3160 43rd St,11103,,,1404000,-73.91613,40.758835,MULTI_FAMILY,2500.0,1404000.0,2411,2010-04-08,92940.0,2023.0,006920068
35247195,North Canton,OH,OTHER,2470 W Bent Oak Cir,44720,4.0,3.0,381600,-81.39006,40.916157,SINGLE_FAMILY,12601.0,381600.0,2766,2018-07-27,97310.0,2023.0,2013983
2101186,Saint Paul,MN,OTHER,755 Cottage Ave E,55106,3.0,1.0,240800,-93.068726,44.98316,SINGLE_FAMILY,5250.0,240800.0,1800,2014-04-24,211200.0,2023.0,202922410052
18239225,Butte Valley,CA,OTHER,2912 Pentz Rd,95965,4.0,3.0,403000,-121.56398,39.65622,SINGLE_FAMILY,1014512.0,403000.0,2570,2016-07-12,249916.0,2023.0,041030062000
63038593,Shakopee,MN,SOLD,1565 Countryside Dr,55379,2.0,2.0,215000,-93.51067,44.775364,TOWNHOUSE,871.0,227700.0,1895,2023-01-27,213400.0,2023.0,273403700
33684432,Shaker Heights,OH,OTHER,2956 Attleboro Rd,44120,6.0,4.0,738800,-81.55906,41.47623,SINGLE_FAMILY,20037.0,738800.0,4953,2010-07-01,149940.0,2022.0,73214025
31391382,Bellmore,NY,OTHER,2381 Henry St,11710,7.0,3.0,895200,-73.54133,40.680286,SINGLE_FAMILY,7078.0,895200.0,6499,2016-12-02,570.0,2022.0,56468000009
65456445,Union City,GA,OTHER,4601 Rolling Brook Ct,30291,3.0,2.0,230900,-84.562546,33.572285,SINGLE_FAMILY,7788.0,230900.0,1849,2013-03-05,74680.0,2023.0,09F160200651849
24690275,Ann Arbor,MI,OTHER,1435 Ravenwood Ave,48103,3.0,1.5,416700,-83.78693,42.2959,SINGLE_FAMILY,8712.0,416700.0,2479,1984-08-01,186900.0,2023.0,090824106010
18132333,Cathedral City,CA,SOLD,32329 Whispering Palms Trl,92234,4.0,2.0,340000,-116.47158,33.81342,SINGLE_FAMILY,13939.0,439400.0,4500,2022-06-21,346800.0,2023.0,680202022
112571101,Paxton,IL,OTHER,324 E Pells St,60957,4.0,2.0,119300,-88.093544,40.459564,SINGLE_FAMILY,12000.0,119300.0,1650,2012-08-29,23570.0,2022.0,111408360003
96510379,Dallas,TX,OTHER,1634 Garza Ave,75216,3.0,2.0,253400,-96.80125,32.699516,SINGLE_FAMILY,11651.0,253400.0,1795,2017-04-26,252200.0,2023.0,00000316576000000
43268419,Hollywood,FL,SOLD,7831 Farragut St,33024,3.0,2.0,405000,-80.2454,26.033457,SINGLE_FAMILY,6363.0,515400.0,3399,2021-12-21,326440.0,2023.0,514103120390
82107654,Orlando,FL,OTHER,6090 Tivoli Gardens Blvd,32829,3.0,3.0,362700,-81.25256,28.474958,SINGLE_FAMILY,1981.0,362700.0,2234,2020-11-20,205076.0,2023.0,312319200601570
36021693,Crofton,MD,OTHER,1507 Shadywood Ct,21114,,2.5,605600,-76.67672,39.02236,SINGLE_FAMILY,5037.0,605600.0,2700,1999-06-01,468900.0,2023.0,0290390069432
29977208,Elmira,NY,OTHER,1152 Woodbine Ave,14904,4.0,2.0,87500,-76.798,42.06182,SINGLE_FAMILY,6580.0,87500.0,1658,2007-09-05,52250.0,2023.0,07360010908211
45539150,Bonita Springs,FL,OTHER,4360 Sanctuary Way,34134,4.0,4.0,1894600,-81.825874,26.344236,SINGLE_FAMILY,10890.0,1894600.0,12896,2013-04-23,1019812.0,2023.0,324725B20130E0140
40055523,Scotch Plains,NJ,OTHER,1192 Hetfield Ave,07076,,,642000,-74.36655,40.641438,SINGLE_FAMILY,6969.0,642000.0,3800,1997-11-12,87200.0,2023.0,1609203000000009
60261893,Chicago,IL,OTHER,3861 N Milwaukee Ave,60641,4.0,3.0,553800,-87.74348,41.951294,TOWNHOUSE,1430.0,553800.0,3497,2021-06-17,40000.0,2022.0,1322102044
154623680,Jacksonville,FL,OTHER,4249 Saint Johns Ave,32210,3.0,2.0,426500,-81.715164,30.28871,SINGLE_FAMILY,8744.0,426500.0,1999,2003-08-26,,2023.0,0691670020
107307545,Tiffin,OH,OTHER,531 S Washington St,44883,3.0,2.5,276500,-83.17433,41.102997,SINGLE_FAMILY,15594.0,276500.0,1628,1992-09-18,65620.0,2022.0,Q53041318160000
34830379,Youngstown,OH,SOLD,91 Kleber Ave,44515,3.0,1.0,113000,-80.74845,41.102894,SINGLE_FAMILY,7797.0,158700.0,1317,2021-12-10,41970.0,2023.0,480270042.000
126874676,Valdosta,GA,OTHER,436 Georgetown Cir,31602,,2.0,197300,-83.2939,30.867388,SINGLE_FAMILY,4791.0,197300.0,1232,2016-07-22,70910.0,2023.0,0111D004
84651351,Orlando,FL,OTHER,4840 Cayview Ave #30810,32819,3.0,2.0,564300,-81.44757,28.428312,CONDO,2375.0,564300.0,2995,2008-03-04,313720.0,2022.0,292406888730810
31228036,Valley Stream,NY,OTHER,49 Fritchie Pl,11580,,1.0,623200,-73.711586,40.676228,SINGLE_FAMILY,4499.0,623200.0,3317,1998-06-23,444.0,2022.0,37U09000111
2102255407,Gulfport,MS,SOLD,12197 Artes St,39503,12.0,8.0,0,-89.06602,30.458488,MULTI_FAMILY,6969.0,312100.0,2614,2021-12-28,,,0908e02004.072
91205765,McPherson,KS,OTHER,1324 Highland Dr,67460,3.0,3.0,218700,-97.65309,38.383266,SINGLE_FAMILY,12632.0,218700.0,1634,2019-07-19,18942.0,2023.0,1352104003001000
97880201,Whitefish Bay,WI,OTHER,5159 N Berkeley Blvd,53217,3.0,4.0,738300,-87.90595,43.110695,SINGLE_FAMILY,12537.0,738300.0,3529,2010-11-19,475700.0,2021.0,2020346000
2856807,Saint Louis,MO,OTHER,8347 Lonkar Dr,63123,3.0,1.5,243800,-90.31882,38.56154,SINGLE_FAMILY,6011.0,243800.0,1766,2008-10-07,37580.0,2023.0,25J520566
9679007,Akron,PA,OTHER,11 Wolf Rd,17501,3.0,1.5,321500,-76.21182,40.16136,SINGLE_FAMILY,15681.0,321500.0,1829,1998-03-11,183600.0,2023.0,0203898200000
11397461,Pittsburgh,PA,OTHER,133 Marshall Dr,15228,4.0,2.5,545000,-80.03981,40.35772,SINGLE_FAMILY,13059.0,545000.0,3305,1996-07-03,227700.0,2023.0,0251R00067000000
85989918,Sayre,OK,SOLD,1314 N Broadway St,73662,3.0,2.0,77700,-99.63821,35.305523,SINGLE_FAMILY,14383.0,112400.0,1200,2022-03-22,11371.0,2022.0,1314NBroadway73662
33156210,Fairfield,OH,OTHER,27 Providence Dr APT 142,45014,2.0,2.0,132000,-84.49176,39.3104,CONDO,,132000.0,1436,2015-11-05,32060.0,2023.0,A0700203000396
32325607,Staten Island,NY,RECENTLY_SOLD,14 Pershing St,10305,3.0,3.0,805000,-74.07115,40.59552,SINGLE_FAMILY,2178.0,805400.0,3227,2024-06-05,15720.0,2023.0,032730069
813705,Des Moines,IA,OTHER,1238 Sampson St,50316,2.0,1.5,106800,-93.59304,41.60196,SINGLE_FAMILY,6664.0,106800.0,1200,2006-09-26,71700.0,2022.0,11006088000000
5393535,Bolingbrook,IL,OTHER,2 Assembly Ct,60440,4.0,2.0,348200,-88.054,41.717567,SINGLE_FAMILY,10187.0,348200.0,2700,2007-11-09,76372.0,2022.0,1202024040040000
21602456,Baldwin Park,CA,OTHER,3902 Bresee Ave APT 15,91706,1.0,1.0,383200,-117.96946,34.082527,CONDO,43345.0,383200.0,2199,2002-11-14,162852.0,2023.0,8553006051
56140205,Orange,MA,OTHER,149 Memory Ln,01364,3.0,2.0,306900,-72.23248,42.61946,SINGLE_FAMILY,22651.0,306900.0,2949,2019-01-15,227500.0,2023.0,ORANM0221B0000L00064
76892587,Fort Dodge,IA,OTHER,1517 3rd Ave N,50501,3.0,2.0,86600,-94.177025,42.509098,SINGLE_FAMILY,3963.0,86600.0,1050,2013-09-16,63410.0,2023.0,0720260005
61058937,Roseburg,OR,OTHER,2130 NE Oswego Ave,97470,3.0,1.0,270900,-123.33088,43.217823,SINGLE_FAMILY,6098.0,270900.0,1633,1998-04-17,136857.0,2022.0,R24093
975189,Birmingham,AL,OTHER,3586 Rockhill Rd,35223,4.0,3.5,1100800,-86.72033,33.499126,SINGLE_FAMILY,23150.0,1100800.0,6887,2003-02-10,88600.0,2023.0,2800022007017000
32460938,Saratoga Springs,NY,SOLD,22 WELLINGTON Drive,12866,4.0,3.0,570000,-73.76088,43.110237,SINGLE_FAMILY,30056.0,688100.0,9000,2021-09-22,310200.0,2023.0,415600 153.1023
9496849,Erie,PA,OTHER,2408 W 29th St,16506,1.0,1.0,117700,-80.12585,42.09006,SINGLE_FAMILY,12249.0,117700.0,964,2010-07-28,72200.0,2023.0,33050300000900
41712207,Knoxville,TN,OTHER,12529 Amberset Dr,37922,4.0,4.0,988400,-84.1681,35.836666,SINGLE_FAMILY,16117.0,988400.0,5318,2020-11-23,184450.0,2023.0,162LA070
2056263672,San Antonio,TX,RECENTLY_SOLD,126 Lukas Cv,78253,4.0,3.0,0,-98.777115,29.43239,SINGLE_FAMILY,7187.0,576100.0,3452,2024-01-26,,,1349828
113062101,Grand Junction,CO,OTHER,435 32 Rd #837,81504,3.0,2.0,157700,-108.46064,39.067642,SINGLE_FAMILY,,157700.0,1800,2017-06-01,8310.0,2023.0,700807410003
35542670,Warren,OH,SOLD,2330 Mahoning Ave NW,44483,4.0,2.0,100000,-80.83161,41.256496,MULTI_FAMILY,7997.0,112800.0,1214,2023-05-02,14990.0,2022.0,39398700
19484229,Milpitas,CA,OTHER,2252 Pinard St,95035,4.0,3.0,2105600,-121.86461,37.42495,SINGLE_FAMILY,4356.0,2105600.0,4500,2012-04-24,906358.0,2023.0,08847108
58608385,Sugar Hill,GA,OTHER,5861 Deer Crossing Dr,30518,5.0,5.0,802800,-84.09335,34.10882,SINGLE_FAMILY,13068.0,802800.0,4237,2012-09-18,295080.0,2023.0,7341100
244274358,Manassas,VA,OTHER,9559 Coggs Bill Dr APT 402,20110,2.0,1.0,254900,-77.456245,38.752666,CONDO,1.0,254900.0,1822,2006-01-20,176600.0,2022.0,100440017304
34329872,Cincinnati,OH,OTHER,3745 Reemelin Rd,45211,3.0,3.0,297900,-84.60933,39.172367,SINGLE_FAMILY,15245.0,297900.0,2234,2018-11-28,75082.0,2023.0,5500062011400
85987736,Elk City,OK,SOLD,400 Kimberly Dr,73644,3.0,2.0,130000,-99.4379,35.409645,SINGLE_FAMILY,11325.0,157400.0,1362,2021-08-05,16288.0,2022.0,400NONEKimberly73644
7382391,Forest Lakes,AZ,OTHER,1609 Wolverine Trl,85931,,1.0,832300,-110.792625,34.341377,SINGLE_FAMILY,50093.0,832300.0,1700,2005-09-27,71544.0,2024.0,40339002
56401674,Arlington,MA,OTHER,40 Jason St,02476,6.0,3.5,2598500,-71.15938,42.413944,SINGLE_FAMILY,19166.0,2598500.0,7802,1982-08-01,2131600.0,2023.0,ARLIM1290B0002L0014B
35128218,Lakeside Marblehead,OH,OTHER,415 Maple Ave,43440,4.0,1.0,551800,-82.750496,41.54284,SINGLE_FAMILY,2640.0,551800.0,3993,1997-05-30,138850.0,2022.0,0140423705472000
90749226,Heber Springs,AR,OTHER,5420 Pangburn Rd,72543,,1.0,182800,-91.89112,35.4345,MANUFACTURED,435600.0,182800.0,1140,2009-12-14,9674.0,2023.0,00100068002
19313739,Salinas,CA,OTHER,116 Geil St,93901,2.0,2.0,653400,-121.66022,36.666977,SINGLE_FAMILY,5200.0,653400.0,3434,2010-09-02,264621.0,2023.0,002432009000
9251838,Camp Hill,PA,OTHER,70 Old Pioneer Rd,17011,4.0,3.0,365100,-76.949066,40.249733,SINGLE_FAMILY,9583.0,365100.0,2199,2012-06-06,231900.0,2023.0,10201848375
48357656,Shady Cove,OR,OTHER,128 Fawn Cir,97539,3.0,2.0,360400,-122.814255,42.62216,SINGLE_FAMILY,6098.0,360400.0,1994,2019-04-16,214780.0,2023.0,10780017
125749766,Magnolia,DE,OTHER,62 Callahan Ct,19962,4.0,3.5,564900,-75.50747,39.056293,SINGLE_FAMILY,21780.0,564900.0,3237,2015-08-26,88300.0,2023.0,80011200032500000
34254853,Cincinnati,OH,OTHER,3259 Midden Cir,45238,2.0,1.0,164700,-84.612434,39.1383,SINGLE_FAMILY,5009.0,164700.0,1428,2021-06-04,,2023.0,2080060022500
69630084,Yukon,OK,SOLD,10405 Middlesbrough Ln,73099,4.0,2.0,275000,-97.72693,35.575466,SINGLE_FAMILY,8276.0,278300.0,1846,2023-03-10,19552.0,2023.0,10405NONEMiddlesbrough73099
46235291,Orlando,FL,OTHER,9018 Notchwood Ct,32825,3.0,2.0,419300,-81.25971,28.534742,SINGLE_FAMILY,13820.0,419300.0,2490,2012-02-29,290287.0,2023.0,312231200202220
305846490,Orange City,FL,OTHER,810 Guadalupe Dr,32763,3.0,2.0,354700,-81.28974,28.921955,SINGLE_FAMILY,,354700.0,2194,2020-07-02,232701.0,2023.0,801436001140
68415145,Friendswood,TX,OTHER,3802 Tammony Park Ln,77546,3.0,2.0,315100,-95.173615,29.539076,SINGLE_FAMILY,9105.0,315100.0,2310,2020-11-30,319265.0,2023.0,1242650010031
122587933,Pflugerville,TX,OTHER,18505 Mammoth Cave Blvd,78660,,2.5,317500,-97.61035,30.467272,SINGLE_FAMILY,3850.0,317500.0,1420,2015-03-16,265213.0,2023.0,836503
33026549,Tarrytown,NY,OTHER,1301 Dorset Dr,10591,3.0,2.5,784500,-73.83111,41.06398,SINGLE_FAMILY,2178.0,784500.0,5293,2006-10-20,647000.0,2023.0,552600717047122
73110283,Fort Wayne,IN,RECENTLY_SOLD,2218 Miner St,46802,2.0,1.0,82000,-85.150826,41.064518,SINGLE_FAMILY,1742.0,84800.0,1025,2023-11-27,56400.0,2023.0,021211309016.000074
75581360,Olathe,KS,OTHER,20947 W 124th St,66061,3.0,3.0,369200,-94.82693,38.901974,SINGLE_FAMILY,10019.0,369200.0,2315,2017-08-25,35650.0,2023.0,DP361000000132
54921629,Fort Myers,FL,OTHER,11134 Lakeland Cir,33913,3.0,2.0,495100,-81.7418,26.583141,SINGLE_FAMILY,8537.0,495100.0,2929,2001-08-10,202635.0,2023.0,084526230000A0670
17613020,Highland,CA,OTHER,6783 Regal Oaks Rd,92346,3.0,2.0,578100,-117.18831,34.130466,SINGLE_FAMILY,7187.0,578100.0,2882,2006-01-13,492571.0,2023.0,1200261230000
2067591164,Philadelphia,PA,SOLD,1608 Germantown Ave #C,19122,2.0,2.0,369900,-75.14248,39.97544,CONDO,963.0,380500.0,1831,2022-05-09,,,TBD
84568604,Milton Freewater,OR,OTHER,138 Dehaven St,97862,3.0,2.0,303000,-118.39323,45.934875,SINGLE_FAMILY,13939.0,303000.0,2068,2017-07-06,157900.0,2022.0,5N3502DD02500
17471497,Adelanto,CA,OTHER,17919 Stevens Rd,92301,3.0,2.0,344300,-117.44013,34.576195,SINGLE_FAMILY,7187.0,344300.0,1927,1993-12-30,114338.0,2023.0,0459741590000
25223508,Anaheim,CA,OTHER,431 S Empire St,92804,3.0,2.0,1026200,-117.95482,33.826344,SINGLE_FAMILY,6800.0,1026200.0,4464,2010-07-12,474096.0,2023.0,12816306
202649517,Glenn Heights,TX,RECENTLY_SOLD,227 Sunset Dr,75154,3.0,2.0,0,-96.85263,32.536633,SINGLE_FAMILY,10105.0,285000.0,2049,2024-01-11,272634.0,2023.0,163995
54106031,Lubbock,TX,OTHER,8210 Hartford Ave,79423,3.0,1.5,144000,-101.88487,33.518856,SINGLE_FAMILY,6900.0,144000.0,1099,1996-02-09,140397.0,2023.0,R37273
333897278,Aurora,CO,OTHER,27847 E Costilla Dr,80016,6.0,6.0,1123600,-104.66362,39.59186,SINGLE_FAMILY,1.0,1123600.0,5330,2021-06-11,66033.0,2023.0,207128120013
25924372,Sacramento,CA,OTHER,5411 Rexleigh Dr,95823,3.0,2.0,472500,-121.44351,38.447746,SINGLE_FAMILY,4356.0,472500.0,2220,2018-08-10,337740.0,2023.0,11712400170000
18823532,Fortuna,CA,OTHER,1526 L St,95540,4.0,2.0,388000,-124.15084,40.597366,SINGLE_FAMILY,5662.0,388000.0,2299,2020-03-26,282764.0,2023.0,040252005000
20273678,Lancaster,CA,SOLD,16733 Mossdale Ave,93535,3.0,2.0,319000,-117.830444,34.63072,SINGLE_FAMILY,30056.0,387500.0,2269,2021-08-09,325380.0,2023.0,3070008003
67279598,Saginaw,MI,OTHER,2620 N Center Rd,48603,3.0,1.5,142300,-84.014465,43.445793,SINGLE_FAMILY,10890.0,142300.0,1300,2011-08-10,54600.0,2023.0,23124162536000
66293441,Baton Rouge,LA,OTHER,8079 Brandon Dr,70809,3.0,2.0,247100,-91.10314,30.426567,SINGLE_FAMILY,43560.0,247100.0,1585,2007-04-05,18480.0,2022.0,00835870
93016006,Kings Mountain,NC,OTHER,903 Gantt St,28086,3.0,1.0,196500,-81.343414,35.254715,SINGLE_FAMILY,15929.0,196500.0,1247,2020-01-24,104032.0,2023.0,9664
34106146,Columbus,OH,OTHER,2405 Sandstrom Dr,43235,3.0,2.0,377200,-83.079796,40.11542,SINGLE_FAMILY,8596.0,377200.0,2364,2014-09-26,103360.0,2023.0,59019809300
10774327,Anderson,SC,OTHER,121 Pikes Rdg,29626,2.0,2.0,483500,-82.80078,34.467884,SINGLE_FAMILY,2047320.0,483500.0,1749,2017-07-17,14280.0,2022.0,0490301036
24645765,Huntington Woods,MI,OTHER,10535 Elgin Ave,48070,3.0,2.0,589800,-83.169075,42.48292,SINGLE_FAMILY,6229.0,589800.0,3814,1998-01-14,268170.0,2023.0,2520259004
25744301,Santa Ana,CA,OTHER,801 S Lyon St #148,92705,1.0,1.0,326100,-117.8434,33.737236,CONDO,1000.0,326100.0,2234,2021-03-25,197676.0,2023.0,93791148
64878003,Adelanto,CA,OTHER,15238 Pearmain St,92301,3.0,2.0,390400,-117.404106,34.527393,SINGLE_FAMILY,7492.0,390400.0,2162,2013-05-17,98239.0,2023.0,3135211360000
17429892,Victorville,CA,OTHER,15757 La Joya Pl,92394,4.0,2.0,370400,-117.32033,34.52532,SINGLE_FAMILY,9583.0,370400.0,1949,2009-03-16,49510.0,2023.0,3106221270000
78388814,Bismarck,ND,OTHER,7000 Endicott Dr,58503,4.0,,492700,-100.72355,46.88034,SINGLE_FAMILY,65078.0,492700.0,3029,2008-04-01,185500.0,2023.0,31139800901020
110957600,Picayune,MS,OTHER,212 Lake David Dr,39466,3.0,2.0,251600,-89.7448,30.607431,SINGLE_FAMILY,95832.0,251600.0,1832,2013-10-30,10309.0,2022.0,5174180000101700
74588257,Holland,MI,OTHER,6331 144th Ave,49423,3.0,2.0,459600,-86.169014,42.741413,SINGLE_FAMILY,304920.0,459600.0,2807,2019-08-28,167500.0,2023.0,1101103510
47573040,Venice,FL,SOLD,3124 Odessa Rd,34293,2.0,2.0,290000,-82.41272,27.060522,SINGLE_FAMILY,8000.0,315000.0,2342,2022-08-01,208000.0,2023.0,0449110122
77578396,Lexington,KY,OTHER,213 Shannon Ct,40511,3.0,2.0,277500,-84.54811,38.08721,SINGLE_FAMILY,5671.0,277500.0,1795,2019-08-26,160000.0,2020.0,38103380
67024958,Kelso,WA,OTHER,709 S 5th Ave,98626,2.0,1.0,283900,-122.91032,46.139755,SINGLE_FAMILY,5662.0,283900.0,1700,2013-01-18,248450.0,2023.0,22746
220061818,Palmerton,PA,SOLD,682 Mauch Chunk Rd,18071,6.0,3.0,182000,-75.625885,40.799232,MULTI_FAMILY,4356.0,232700.0,2293,2022-03-25,21250.0,2023.0,42A49C42
83039308,Freehold,NJ,OTHER,286 Lilac Ln,07728,2.0,3.0,480000,-74.31542,40.243343,TOWNHOUSE,2787.0,480000.0,3099,2018-08-27,393400.0,2023.0,17000863500001286S08
87001236,Keokuk,IA,OTHER,1219 Fulton St,52632,2.0,1.0,81900,-91.38403,40.40507,SINGLE_FAMILY,6969.0,81900.0,974,2017-10-23,65500.0,2023.0,044521252150030
29336876,Austin,TX,OTHER,1606 Westover Rd,78703,3.0,2.0,1764000,-97.75562,30.29907,SINGLE_FAMILY,7753.0,1764000.0,8037,2017-05-04,2152566.0,2023.0,117989
250445740,Chester Gap,VA,OTHER,127 Hunter Ave,22623,3.0,2.5,354400,-78.14921,38.85217,SINGLE_FAMILY,14461.0,354400.0,2269,2017-11-17,277800.0,2022.0,1C159
44460087,Jacksonville,FL,OTHER,2908 W 8th St,32254,2.0,1.0,90600,-81.71685,30.346317,SINGLE_FAMILY,9268.0,90600.0,1307,2005-08-25,55688.0,2023.0,0486290000
33134677,Lima,OH,OTHER,1659 Springhill Dr,45805,3.0,3.0,254500,-84.15696,40.706547,SINGLE_FAMILY,18513.0,254500.0,2129,2010-07-29,55020.0,2022.0,46100301002000
75153047,Myrtle Point,OR,OTHER,612 Hermann,97458,3.0,2.0,276200,-124.1328,43.062172,SINGLE_FAMILY,4791.0,276200.0,1963,2018-02-21,281670.0,2023.0,29S12W16BA08300
57113877,Sudbury,MA,OTHER,65 Willow Rd,01776,4.0,3.5,940100,-71.44756,42.379665,SINGLE_FAMILY,30927.0,940100.0,4500,2001-09-05,871300.0,2023.0,SUDBH0500546
49258449,Spanaway,WA,RECENTLY_SOLD,21818 42nd Avenue E,98387,5.0,3.0,535000,-122.37244,47.05826,SINGLE_FAMILY,10001.0,553400.0,2895,2023-11-06,468400.0,2023.0,5001141430
494874,Washington,DC,OTHER,1002 Galloway St NE,20011,3.0,2.0,680700,-76.99301,38.95383,SINGLE_FAMILY,5662.0,680700.0,3569,2019-10-02,577050.0,2023.0,37540010
13209536,Lyons,CO,OTHER,303 5th Ave,80540,6.0,4.75,938200,-105.272095,40.221752,SINGLE_FAMILY,14527.0,938200.0,6794,2007-09-17,54904.0,2023.0,120318424006
45254961,Indian River Shores,FL,OTHER,5400 Highway A1a,32963,2.0,2.0,350200,-80.36696,27.68205,CONDO,,350200.0,4999,2014-07-30,247478.0,2022.0,324019000060060000220
121361556,Saint louis,MO,OTHER,3825 Cleveland Ave,63110,4.0,4.0,634100,-90.24436,38.611073,SINGLE_FAMILY,4051.0,634100.0,3984,2019-06-14,80320.0,2023.0,21160002301
69038548,Fountain,CO,OTHER,7262 Bentwater Dr,80817,3.0,2.5,392600,-104.694275,38.709682,SINGLE_FAMILY,5303.0,392600.0,2094,2016-09-26,20230.0,2022.0,5529312005
86525134,Lebanon,PA,OTHER,503 Hemlock Ln,17042,3.0,2.0,432300,-76.42949,40.249935,SINGLE_FAMILY,99316.0,432300.0,2520,2018-10-31,260900.0,2023.0,1223371313367480000
52695124,Tigard,OR,OTHER,8901 SW Pippen Ln,97224,3.0,3.0,619500,-122.76874,45.40869,SINGLE_FAMILY,3920.0,619500.0,3099,2004-06-17,326710.0,2023.0,2S111DA11800
55104859,San Diego,CA,OTHER,2018 Garnet Ave,92109,3.0,3.0,1372000,-117.23307,32.8018,SINGLE_FAMILY,6242.0,1372000.0,5499,2016-04-27,682694.0,2023.0,4165431402
67013600,Longview,WA,FOR_SALE,1 Monterrey Place,98632,3.0,3.0,579900,-122.94319,46.15431,SINGLE_FAMILY,9600.0,562200.0,2829,2001-10-03,399150.0,2023.0,02206339
33106893,Mount Kisco,NY,OTHER,43 E Ridge Ln,10549,3.0,3.0,823700,-73.73359,41.18621,SINGLE_FAMILY,8276.0,823700.0,5617,2018-03-28,81000.0,2023.0,5556008080117
24537822,Clawson,MI,SOLD,116 Essex St,48017,3.0,1.0,205000,-83.12696,42.53474,SINGLE_FAMILY,6098.0,249000.0,1963,2022-07-29,92950.0,2023.0,2034481013
34079747,Columbus,OH,OTHER,6403 Little Deer Ln,43213,3.0,2.0,361100,-82.83259,39.971325,SINGLE_FAMILY,11277.0,361100.0,2342,2020-06-09,100420.0,2023.0,55021196200
53047840,Salem,OR,SOLD,5553 Sugar Plum St SE,97306,3.0,3.0,385000,-123.020164,44.874416,SINGLE_FAMILY,6970.0,441000.0,2331,2022-01-07,213180.0,2023.0,585788
57422415,Avon,MA,OTHER,26 Ballum Rd,02322,3.0,2.0,569100,-71.05174,42.12294,SINGLE_FAMILY,16552.0,569100.0,3300,2004-03-16,418800.0,2023.0,AVONM0C4B003L016
33037406,Harrison,NY,OTHER,16 Shelton St,10528,5.0,2.0,1155000,-73.72255,40.972977,MULTI_FAMILY,8712.0,1155000.0,6854,1999-01-05,11710.0,2023.0,55280003761
34413167,Blue Ash,OH,OTHER,9621 Ash Ct,45242,5.0,2.5,643900,-84.39558,39.23464,SINGLE_FAMILY,17467.0,643900.0,4116,2002-06-14,166317.0,2023.0,6120080061500
78904045,Wichita Falls,TX,OTHER,1421 State Highway 79 N,76305,3.0,2.0,187400,-98.43061,33.906986,SINGLE_FAMILY,210046.0,187400.0,1314,2018-05-22,135757.0,2023.0,156074
13760715,Lakewood,CO,OTHER,1090 Brentwood St,80214,2.0,1.0,482800,-105.08923,39.73459,SINGLE_FAMILY,6534.0,482800.0,1999,2015-09-17,23858.0,2022.0,4902223001
13055637,Denver,CO,OTHER,1955 S Xenia Way,80231,2.0,3.0,431300,-104.88671,39.68105,TOWNHOUSE,1306.0,431300.0,2749,2019-10-17,30862.0,2023.0,197328120002
32116259,Jamaica,NY,OTHER,8660 108th St,11418,,,732900,-73.840096,40.696224,MULTI_FAMILY,2500.0,732900.0,2100,1998-03-04,38340.0,2023.0,092030032
303775987,Denver,NC,OTHER,2561 Saint James Church Rd,28037,3.0,2.0,482600,-81.02269,35.50706,SINGLE_FAMILY,35022.0,482600.0,2149,2019-09-06,477899.0,2023.0,52678
114768034,Loudonville,OH,OTHER,2535 State Route 60,44842,5.0,2.5,338900,-82.244064,40.74053,SINGLE_FAMILY,217843.0,338900.0,2376,2008-02-22,60330.0,2022.0,B050130001206
31379532,Roosevelt,NY,OTHER,16 W Pennywood Ave,11575,4.0,2.0,644800,-73.594025,40.685566,SINGLE_FAMILY,5702.0,644800.0,4929,2020-09-29,329.0,2022.0,55432000031
58626765,Champlin,MN,OTHER,11498 Basswood Ln N,55316,3.0,2.5,543500,-93.41733,45.16292,SINGLE_FAMILY,19602.0,543500.0,2949,2016-09-12,488200.0,2023.0,3612022230068
61806219,Huntington,MA,OTHER,8 Prospect St,01050,5.0,2.0,341700,-72.88149,42.23397,SINGLE_FAMILY,13.0,341700.0,4265,2019-08-21,224200.0,2023.0,HUNTM00H5B0029L0000
76084691,Mountain Home,AR,OTHER,1020 Sycamore Springs Rd,72653,,2.0,262500,-92.29192,36.28984,SINGLE_FAMILY,134164.0,262500.0,929,2005-08-24,26530.0,2022.0,00102356000
5568428,Cherry Valley,IL,OTHER,130 S Lawrence St,61016,3.0,2.0,170800,-88.94729,42.233566,SINGLE_FAMILY,9665.0,170800.0,1962,2019-03-11,24004.0,2022.0,1601258007
31753325,Fayetteville,NY,OTHER,7295 Woodchuck Hill Rd,13066,4.0,2.5,482900,-76.01839,43.014793,SINGLE_FAMILY,20908.0,482900.0,3993,2000-10-19,387600.0,2023.0,31388910101620
112342102,Prescott Valley,AZ,OTHER,4083 N Fairfax Rd,86314,3.0,2.0,514800,-112.35088,34.601753,SINGLE_FAMILY,10018.0,514800.0,2250,2021-01-29,64799.0,2024.0,10357706
6308433,Charlotte,NC,OTHER,14202 Misty Brook Ln,28273,4.0,2.0,418600,-80.96899,35.096905,SINGLE_FAMILY,41404.0,418600.0,2099,2020-08-27,345800.0,2023.0,21922225
120261418,Bardstown,KY,OTHER,136 Beechfork Trl,40004,3.0,3.0,442100,-85.49624,37.79858,SINGLE_FAMILY,44866.0,442100.0,2819,2019-04-17,292000.0,2020.0,45SW001057
18594554,El Dorado Hills,CA,OTHER,3163 Fairchild Dr,95762,5.0,3.0,903800,-121.07541,38.699642,SINGLE_FAMILY,9583.0,903800.0,3669,1994-06-10,434175.0,2023.0,125675037000
19732766,San Jose,CA,OTHER,4184 Santa Susana Way,95111,4.0,2.0,1071100,-121.8241,37.280834,SINGLE_FAMILY,5000.0,1071100.0,3999,1998-07-24,696673.0,2023.0,49409036
16249845,Visalia,CA,OTHER,4323 W Victor Ave,93277,4.0,2.0,310600,-119.338745,36.300934,SINGLE_FAMILY,8886.0,310600.0,1837,2000-01-19,110800.0,2023.0,119192008000
306589376,Seneca,SC,OTHER,141 Waterfall Rd,29672,5.0,7.0,2449000,-82.927605,34.799206,SINGLE_FAMILY,40075.0,2449000.0,14127,2017-01-09,,2023.0,1360003098
243476314,Winchester,CA,OTHER,35586 Athena Ct,92596,4.0,3.0,735600,-117.088554,33.60406,SINGLE_FAMILY,9148.0,735600.0,3499,2019-11-08,509819.0,2023.0,476430001
55195875,Columbia,SC,OTHER,2 Night Hawk Way,29229,4.0,3.0,359600,-80.894135,34.176186,SINGLE_FAMILY,7725.0,359600.0,2149,2006-11-14,,2022.0,232030605
28966818,Haltom City,TX,OTHER,4613 Norvell Dr,76117,3.0,2.0,294800,-97.26305,32.830795,SINGLE_FAMILY,10062.0,294800.0,1999,2017-10-03,280237.0,2023.0,00720356
39777148,Ringwood,NJ,OTHER,418 Lakeview Ave,07456,,,468100,-74.25753,41.09819,SINGLE_FAMILY,5410.0,468100.0,3499,1996-08-13,249900.0,2023.0,1100851000000023
21385741,La Mirada,CA,OTHER,15123 Aloe Dr,90638,3.0,2.0,882700,-118.00877,33.91351,SINGLE_FAMILY,8725.0,882700.0,3528,2013-09-26,525496.0,2023.0,8038025019
50613618,Elkhart,IN,OTHER,206 W Simonton St,46514,3.0,2.0,174100,-85.97949,41.699005,SINGLE_FAMILY,7405.0,174100.0,1564,,139600.0,2023.0,200232334021000027
31925611,Putnam Valley,NY,OTHER,726 Peekskill Hollow Rd,10579,3.0,1.5,558900,-73.80032,41.399124,SINGLE_FAMILY,94088.0,558900.0,5394,2004-11-05,505200.0,2023.0,37280063315
132220797,Raleigh,NC,OTHER,1941 Clark Ave APT 109,27605,,1.0,431500,-78.65744,35.788765,SINGLE_FAMILY,,431500.0,2700,2007-07-20,271986.0,2023.0,1704125198005
58755033,Washington,DC,OTHER,4007 Connecticut Ave NW APT 514,20008,0.0,1.0,238700,-77.06139,38.94137,CONDO,145.0,238700.0,1599,2004-11-02,219190.0,2023.0,22352122
80502280,Easley,SC,OTHER,130 Red Maple Cir,29642,4.0,4.0,438700,-82.54606,34.786644,SINGLE_FAMILY,19962.0,438700.0,2500,2017-12-14,12490.0,2022.0,1870401031
37952478,Lyndhurst,NJ,OTHER,758 Teneyck Ave,07071,4.0,4.0,961100,-74.11753,40.7986,SINGLE_FAMILY,5401.0,961100.0,4900,2018-10-29,783200.0,2023.0,3200222000000023
18244970,Chico,CA,OTHER,751 Brookwood Way,95926,3.0,1.5,396300,-121.808044,39.75566,SINGLE_FAMILY,7840.0,396300.0,1800,2001-05-11,188284.0,2023.0,045660021000
22856344,Moundsville,WV,OTHER,35 Hickory Ave,26041,3.0,1.0,119400,-80.73432,39.92897,SINGLE_FAMILY,871.0,119400.0,1007,2019-02-27,36120.0,2023.0,2511050017000000
33257693,Kensington,OH,OTHER,11269 State Route 9,44427,5.0,1.0,114300,-80.956955,40.73366,SINGLE_FAMILY,9844.0,114300.0,1110,2020-01-17,26260.0,2022.0,2703701000
50593557,Elkhart,IN,OTHER,58221 Benham Ave,46517,4.0,1.0,224500,-85.97017,41.649063,SINGLE_FAMILY,26528.0,224500.0,1500,2013-05-02,147700.0,2023.0,200620202013000009
19015443,Bakersfield,CA,OTHER,1609 Langston Ct,93307,3.0,3.0,325300,-119.02048,35.30688,SINGLE_FAMILY,6969.0,325300.0,1994,1993-12-10,130662.0,2023.0,41219250
38611480,Everett,WA,SOLD,1427 100th Street SW UNIT 40,98204,3.0,2.0,185000,-122.25388,47.91012,MANUFACTURED,,202000.0,632,2021-07-09,193700.0,2023.0,00960003604000
331687821,Overland Park,KS,SOLD,10400 W 174th St,66221,5.0,4.0,0,-94.70679,38.8122,SINGLE_FAMILY,14200.0,948900.0,5721,2021-11-10,106582.0,2023.0,NP848900000294
73781717,New Orleans,LA,RECENTLY_SOLD,725 Greenwood Dr,70124,3.0,2.0,0,-90.108894,29.987339,SINGLE_FAMILY,5002.0,402100.0,2112,2024-03-13,35060.0,2022.0,206306018
13835627,Littleton,CO,OTHER,8026 S Ammons St,80128,6.0,4.0,854200,-105.08743,39.570587,SINGLE_FAMILY,9583.0,854200.0,3999,2015-05-21,44482.0,2023.0,5935309011
348069431,Cartersville,GA,SOLD,25 Running Ter #18,30121,5.0,4.0,538602,-84.81186,34.24587,SINGLE_FAMILY,15245.0,590200.0,2446,2022-06-24,,,0069Q0001197
22152382,Tulsa,OK,SOLD,5845 S Maplewood Ave,74135,3.0,2.0,312500,-95.90676,36.07783,SINGLE_FAMILY,11020.0,330800.0,1980,2023-05-08,17350.0,2023.0,31375933403960
5005062,Godfrey,IL,FOR_SALE,5220 Foxglove Ln,62035,3.0,4.0,425000,-90.213936,38.93883,SINGLE_FAMILY,15376.0,412200.0,3401,2015-09-30,103680.0,2022.0,242012703302013
197990358,Sunset Beach,NC,OTHER,1602 Canal Dr,28468,4.0,2.0,971500,-78.49335,33.872025,SINGLE_FAMILY,43560.0,971500.0,4561,2008-07-25,641410.0,2023.0,256MA076
10009672,Skippack,PA,SOLD,3928 Seneca Ct,19474,3.0,3.0,350000,-75.40302,40.22285,TOWNHOUSE,1306.0,380900.0,2550,2023-04-27,125120.0,2023.0,510003034569
51763380,Fairfax,VA,OTHER,3611 Elderberry Pl,22033,4.0,4.0,977900,-77.41158,38.895966,SINGLE_FAMILY,10890.0,977900.0,4500,2018-02-28,823960.0,2023.0,0353050067
43389901,Cocoa,FL,OTHER,7220 Carlowe Ave,32927,3.0,2.0,291900,-80.79401,28.485909,SINGLE_FAMILY,10018.0,291900.0,2060,2015-04-09,113040.0,2023.0,233514JZ32632
5780309,Winston Salem,NC,OTHER,2535 Aaron Ln,27106,4.0,3.0,505600,-80.28527,36.134735,SINGLE_FAMILY,22651.0,505600.0,2935,1993-09-15,321200.0,2023.0,6827004369000
74289273,Hudson,NH,OTHER,17 Parkhurst Dr,03051,3.0,2.0,517000,-71.4135,42.74669,SINGLE_FAMILY,20037.0,517000.0,3200,1995-08-18,424600.0,2022.0,HDSOM205B066L000
42723306,Gainesville,FL,OTHER,4504 SW 46th Dr,32608,2.0,2.0,170700,-82.39334,29.61229,SINGLE_FAMILY,2613.0,170700.0,1300,2018-07-28,84971.0,2023.0,06974112001
69000222,Merced,CA,OTHER,3593 Santiago Ave,95348,3.0,2.0,394800,-120.5042,37.33126,SINGLE_FAMILY,5227.0,394800.0,1980,2013-05-06,192920.0,2023.0,058461024000
117794174,Temple,NH,OTHER,22 Memorial Hwy,03084,3.0,1.5,403000,-71.83731,42.813194,SINGLE_FAMILY,239580.0,403000.0,3028,2011-08-12,188800.0,2022.0,TMPLM0006AL000023S000000
102974449,Orange Park,FL,OTHER,2003 Bridgewood Dr,32065,4.0,4.0,540700,-81.86158,30.151512,SINGLE_FAMILY,9283.0,540700.0,2979,2011-03-04,310170.0,2022.0,13042400554200877
2053263951,Sherwood,AR,RECENTLY_SOLD,6517 Waterleaf Ct,72120,4.0,2.0,216000,-92.1782,34.7812,SINGLE_FAMILY,7840.0,224200.0,1550,2024-01-30,7680.0,2023.0,23S0530600800
24764271,Oakland,CA,OTHER,4039 Linwood Ave,94602,3.0,2.0,1320400,-122.22004,37.80517,SINGLE_FAMILY,2613.0,1320400.0,4294,2009-04-28,891128.0,2023.0,245234
39785666,Wayne,NJ,OTHER,217 Alps Rd,07470,3.0,2.0,590000,-74.25683,40.919926,SINGLE_FAMILY,8999.0,590000.0,3428,2016-11-29,173800.0,2023.0,1400922000000011
65919400,Smithfield,RI,OTHER,17 Balsam Ln,02917,4.0,2.5,675200,-71.543785,41.891903,SINGLE_FAMILY,20037.0,675200.0,3249,2012-04-02,460500.0,2023.0,SMITM46B000L344U
46525552,West Palm Beach,FL,RECENTLY_SOLD,47 Stratford #D-0470,33417,2.0,2.0,265000,-80.123985,26.717375,CONDO,43560.0,268400.0,1900,2024-01-19,63984.0,2023.0,00424323150040470
103679454,Saint Charles,MO,OTHER,57 Woods Edge Ct,63304,3.0,2.0,406900,-90.59148,38.731995,SINGLE_FAMILY,9583.0,406900.0,2256,2015-07-17,64609.0,2023.0,3003694920002670000000
49992901,Durham,NC,OTHER,4011 Deep Wood Cir,27707,3.0,2.0,504200,-78.96178,35.95595,SINGLE_FAMILY,20298.0,504200.0,2400,2020-09-02,286047.0,2022.0,136935
32902457,Hudson Falls,NY,OTHER,3642 Burgoyne Ave,12839,2.0,1.0,153600,-73.56511,43.31301,SINGLE_FAMILY,17625.0,153600.0,1200,2004-06-28,126000.0,2023.0,5344891548129
81468269,Orange City,FL,SOLD,682 Gilmore Stage Rd,32763,4.0,2.0,290000,-81.291336,28.941843,SINGLE_FAMILY,5896.0,330800.0,2238,2022-09-02,279481.0,2023.0,6395314.0
12517947,Richmond,VA,OTHER,3124 Cullenwood Dr,23234,3.0,2.0,268600,-77.45462,37.479984,SINGLE_FAMILY,7492.0,268600.0,1749,1995-08-31,204000.0,2023.0,C0090618031
44295545,Miami,FL,OTHER,9710 SW 163rd St,33157,3.0,2.0,526700,-80.35005,25.61823,SINGLE_FAMILY,9435.0,526700.0,3699,2005-02-10,146247.0,2023.0,3050280080220
87017575,Knoxville,IA,OTHER,710 W Washington St,50138,3.0,1.0,112700,-93.105675,41.315865,SINGLE_FAMILY,7380.0,112700.0,1412,2011-05-20,85750.0,2023.0,1023600000
36397932,Lutherville Timonium,MD,OTHER,1014 Westwicke Ln,21093,5.0,5.75,1710200,-76.68334,39.43566,SINGLE_FAMILY,71042.0,1710200.0,10125,1998-06-22,1363700.0,2023.0,082200026543
30416539,West Seneca,NY,OTHER,85 Oakbrook Dr,14224,3.0,2.0,312200,-78.72043,42.814533,SINGLE_FAMILY,8276.0,312200.0,2169,2012-10-10,68000.0,2023.0,14680014419324
4163016,Blue Island,IL,SOLD,2121 Grove St,60406,4.0,1.0,105000,-87.67376,41.654358,SINGLE_FAMILY,3301.0,157300.0,1849,2022-02-04,6640.0,2022.0,25313130040000
211283826,Annville,PA,OTHER,455 E Main St,17003,3.0,2.0,209700,-76.5079,40.331066,MULTI_FAMILY,4791.0,209700.0,1800,2008-11-19,116100.0,2023.0,1823147913658610000
44099092,Miami Gardens,FL,SOLD,19310 NW 47th Ave,33055,3.0,2.0,449000,-80.27816,25.949436,SINGLE_FAMILY,8245.0,556800.0,3200,2022-08-30,381679.0,2023.0,3021060070020
6246274,Charlotte,NC,OTHER,248 S Colonial Ave APT 7,28207,1.0,1.0,241400,-80.82654,35.20834,CONDO,17932.0,241400.0,1500,2007-02-27,184939.0,2023.0,15501518
57328072,New Canaan,CT,OTHER,131 Pequot Ln,06840,6.0,8.0,4663800,-73.54054,41.184624,SINGLE_FAMILY,294030.0,4663800.0,25958,2007-12-20,2293340.0,2023.0,NCANM0029B140L00075
92134055,Huntsville,AL,OTHER,3318 Helena Dr NW,35810,3.0,2.0,177600,-86.604416,34.770653,SINGLE_FAMILY,12196.0,177600.0,1450,2006-09-06,22340.0,2023.0,1406232002009000
149198052,Cape Elizabeth,ME,OTHER,10 Apple Tree Ln,04107,3.0,3.0,1004800,-70.2567,43.59335,SINGLE_FAMILY,13939.0,1004800.0,4740,2009-06-04,424200.0,2022.0,CAPEU58031000000
7946743,Glendale,AZ,SOLD,4026 W Danbury Dr,85308,4.0,2.0,457000,-112.14648,33.64175,SINGLE_FAMILY,9695.0,524400.0,2428,2021-09-28,32860.0,2023.0,20718068
55107833,Las Vegas,NV,OTHER,8818 Rambling Rock Ct,89148,3.0,2.5,460700,-115.28426,36.0784,SINGLE_FAMILY,3484.0,460700.0,2195,2006-05-17,101390.0,2024.0,16332610030
83575147,Saint Clair Shores,MI,OTHER,24920 Princeton St,48080,3.0,1.0,239200,-82.91219,42.479458,SINGLE_FAMILY,6534.0,239200.0,1550,2018-12-14,91800.0,2023.0,091428207010
10864173,Charleston,SC,OTHER,852 E Estates Blvd,29414,3.0,2.0,474500,-80.049255,32.79904,SINGLE_FAMILY,10890.0,474500.0,2800,2012-09-04,5890.0,2023.0,3091300001
2078589555,Myrtle Beach,SC,OTHER,863 Gammon Dr.,29579,3.0,2.0,477200,-78.940285,33.704536,SINGLE_FAMILY,8276.0,477200.0,2825,2021-02-26,,,42610040024
104653465,Heyburn,ID,OTHER,1922 V St,83336,4.0,2.0,300800,-113.77454,42.559814,SINGLE_FAMILY,16509.0,300800.0,1995,2002-06-01,206846.0,2022.0,RPH2850014000M
70573566,Fort Worth,TX,OTHER,8129 Hennessey Trl,76131,4.0,2.0,323000,-97.339005,32.88779,SINGLE_FAMILY,6098.0,323000.0,2384,2016-05-06,347158.0,2023.0,40729044
162232944,Dallas,TX,OTHER,2402 Barnes Bridge Rd,75228,3.0,2.0,254700,-96.671684,32.85037,SINGLE_FAMILY,8846.0,254700.0,1999,2014-02-12,197490.0,2023.0,00000384166000000
49882358,Warner Robins,GA,OTHER,302 Tortoise Way,31088,,2.0,202100,-83.64019,32.575474,SINGLE_FAMILY,19166.0,202100.0,1798,2012-08-10,50560.0,2022.0,0W76A0075000
71044779,Jacksonville,FL,OTHER,12700 Bartram Park Blvd APT 336,32258,1.0,1.0,181800,-81.5504,30.138721,CONDO,4000.0,181800.0,1350,2018-11-09,93541.0,2023.0,1587630144
27591591,Missouri City,TX,OTHER,2006 Feather Ridge Dr,77489,3.0,2.0,224100,-95.5321,29.597017,SINGLE_FAMILY,6600.0,224100.0,1794,2011-05-04,213154.0,2023.0,5863010110520907
53282274,Mc Clellandtown,PA,RECENTLY_SOLD,127 College Ave,15458,2.0,1.0,63000,-79.87196,39.886684,SINGLE_FAMILY,18295.0,139300.0,1138,2023-08-21,48550.0,2023.0,15230008
102878685,Bloomington,IN,OTHER,3009 E Daniel St,47401,4.0,4.0,526300,-86.49185,39.137825,SINGLE_FAMILY,10454.0,526300.0,2999,2012-10-11,436800.0,2023.0,530811314025000009
49324498,Puyallup,WA,OTHER,14715 105th Avenue Ct E,98374,3.0,1.75,489000,-122.28798,47.122265,SINGLE_FAMILY,10637.0,489000.0,2767,1986-10-03,403100.0,2023.0,7760300030
79831752,Beaumont,CA,OTHER,1561 Big Sky Dr,92223,3.0,2.0,425800,-116.95054,33.945934,SINGLE_FAMILY,0.0,425800.0,2749,2012-11-29,186336.0,2023.0,419531012
42145640,Memphis,TN,OTHER,2581 School Ave,38112,4.0,2.0,255400,-89.974525,35.138954,SINGLE_FAMILY,7405.0,255400.0,1795,2019-10-22,47450.0,2023.0,03303200002
32171944,Jamaica,NY,OTHER,11209 Rockaway Blvd,11420,,,1087100,-73.82611,40.677544,SINGLE_FAMILY,2651.0,1087100.0,3140,2016-07-19,218250.0,2023.0,116170039
87707521,Chicago,IL,OTHER,2703 W Lawrence Ave #3,60625,2.0,1.0,252300,-87.69654,41.96829,CONDO,12527.0,252300.0,1800,2020-11-20,20589.0,2022.0,13132000431010
34382074,Cincinnati,OH,SOLD,7229 Clovernook Ave,45231,3.0,1.0,86700,-84.53754,39.225693,SINGLE_FAMILY,9583.0,149100.0,1371,2021-07-06,30345.0,2023.0,5930008024400
67081892,Phoenix,AZ,SOLD,1623 W Corona Ave,85041,4.0,2.0,350000,-112.093735,33.40517,SINGLE_FAMILY,11204.0,383300.0,2500,2022-01-14,22680.0,2023.0,10561032
42215380,Memphis,TN,OTHER,5595 Glenwild Ave,38119,3.0,3.0,379300,-89.87543,35.090977,SINGLE_FAMILY,20473.0,379300.0,2448,2016-04-05,69800.0,2023.0,06709500008
45460109,Fort Myers,FL,OTHER,18473 Narcissus Rd,33967,3.0,2.0,396100,-81.822395,26.4693,SINGLE_FAMILY,9452.0,396100.0,2700,2019-06-25,236911.0,2023.0,17462507000450050
332855288,San Francisco,CA,OTHER,2429-2431 Anza St,94118,,2.0,2082200,-122.47437,37.77838,MULTI_FAMILY,2500.0,2082200.0,3800,2001-03-15,1325208.0,2023.0,1558046
51656671,Fletcher,NC,RECENTLY_SOLD,19 Norman Rd,28732,3.0,2.0,405000,-82.5275,35.43303,SINGLE_FAMILY,17859.0,431300.0,2495,2023-07-10,340900.0,2023.0,702623
249178310,Ruther Glen,VA,OTHER,638 Welsh Dr,22546,4.0,2.5,397200,-77.54542,38.0117,SINGLE_FAMILY,,397200.0,2700,2018-07-17,282935.0,2023.0,51A61B527
48532872,Beaverton,OR,OTHER,9985 SW Silver Pl,97008,4.0,3.0,674400,-122.8177,45.447803,SINGLE_FAMILY,11761.0,674400.0,3099,2008-03-25,312990.0,2023.0,1S128CD12000
29317993,Arlington,TX,OTHER,7400 Quail Ridge Dr,76002,4.0,3.0,434600,-97.11314,32.62594,SINGLE_FAMILY,9539.0,434600.0,2949,2019-01-16,438074.0,2023.0,07219598
55796376,Roseville,CA,OTHER,220 Halley Glen Dr,95678,3.0,2.0,572000,-121.301605,38.78055,SINGLE_FAMILY,4660.0,572000.0,2500,2015-07-16,384014.0,2023.0,360051016000
26528441,Lake Jackson,TX,OTHER,101 Portulaca St,77566,3.0,3.0,348500,-95.42478,29.041073,SINGLE_FAMILY,13913.0,348500.0,2369,2016-10-11,340010.0,2023.0,70380116000
21231286,Long Beach,CA,OTHER,1022 E 1st St UNIT 10,90802,1.0,1.0,400200,-118.18024,33.76686,TOWNHOUSE,8228.0,400200.0,1999,2013-03-04,153862.0,2023.0,7265003148
44437229,Jacksonville,FL,OTHER,8084 Paul Jones Dr,32208,3.0,1.0,115100,-81.66974,30.396847,SINGLE_FAMILY,6218.0,115100.0,1257,2004-10-29,63764.0,2023.0,0237810000
121789556,Elkhorn,NE,OTHER,18359 Harney St,68022,4.0,2.5,431400,-96.203094,41.256065,SINGLE_FAMILY,7841.0,431400.0,2500,2013-05-03,361900.0,2023.0,1222121296
299900572,Mint Hill,NC,OTHER,9202 Lawyers Rd,28227,,0.0,3171100,-80.689095,35.185627,SINGLE_FAMILY,117699.0,3171100.0,16057,2019-09-05,3778500.0,2023.0,13522131
108874594,Grand Island,NE,OTHER,216 W 17th St,68801,3.0,1.75,240300,-98.3519,40.939297,SINGLE_FAMILY,7840.0,240300.0,1300,2014-09-22,147272.0,2022.0,400063506
86374832,Baden,PA,OTHER,183 Wallrose Heights Rd,15005,3.0,1.5,200600,-80.15744,40.635178,CONDO,74487.0,200600.0,1657,1997-12-10,25900.0,2023.0,601850170000
63150873,Beaumont,CA,OTHER,1308 Silver Torch Dr,92223,4.0,3.0,584300,-116.952576,33.943256,SINGLE_FAMILY,6098.0,584300.0,2934,2020-02-25,394189.0,2023.0,419480038
45967440,Destin,FL,OTHER,87 Stingray St,32541,3.0,3.0,1209400,-86.42121,30.384129,SINGLE_FAMILY,7499.0,1209400.0,6756,2018-09-28,804297.0,2022.0,002S22058000220190
36351929,Owings Mills,MD,OTHER,8014 Derby Ln #3C8,21117,3.0,4.0,371300,-76.75908,39.402813,CONDO,811.0,371300.0,2500,2014-11-26,251967.0,2023.0,032100000188
11396992,Pittsburgh,PA,SOLD,739 Vermont Ave,15234,3.0,2.0,317200,-80.03718,40.36267,SINGLE_FAMILY,6886.0,337500.0,1762,2023-05-31,97500.0,2024.0,0251G00002000000
29317341,Crowley,TX,OTHER,1300 Wilderness Trl,76036,4.0,3.0,401100,-97.351494,32.556618,SINGLE_FAMILY,12109.0,401100.0,2749,2016-12-01,400721.0,2023.0,07208987
16356259,Oxnard,CA,OTHER,310 Occidental Dr,93036,4.0,2.0,802600,-119.17122,34.22585,SINGLE_FAMILY,6969.0,802600.0,4011,1996-03-18,283011.0,2023.0,1420084025
52218311,South Rockwood,MI,OTHER,5440 Carleton Rockwood Rd,48179,3.0,2.5,429500,-83.27534,42.06085,SINGLE_FAMILY,242629.0,429500.0,2982,2021-04-16,180800.0,2023.0,4801701700
125651396,Disney,OK,OTHER,318 Blue Bonnet St,74340,3.0,2.0,182000,-95.021095,36.483334,MANUFACTURED,17998.0,182000.0,1436,2020-12-18,16769.0,2023.0,E00100015018000100
17080372,San Diego,CA,SOLD,2138 Haniman Dr,92105,2.0,1.0,600000,-117.08315,32.72746,SINGLE_FAMILY,7501.0,721000.0,2619,2021-07-23,611999.0,2023.0,5420530400
25886806,Rancho Murieta,CA,OTHER,7338 Bella Union Ct,95683,2.0,2.0,349300,-121.101654,38.491127,MANUFACTURED,5227.0,349300.0,2570,2019-03-15,262149.0,2023.0,07306750450000
104248572,Port Orange,FL,OTHER,5344 Oak Breeze Ave,32128,3.0,2.0,329000,-81.05827,29.112001,SINGLE_FAMILY,5619.0,329000.0,2214,2017-12-01,178631.0,2023.0,621306000940
91400057,Rochelle,IL,SOLD,9758 E Flagg Rd,61068,2.0,1.0,92000,-89.15408,41.93794,SINGLE_FAMILY,19166.0,117000.0,850,2022-01-25,25064.0,2022.0,24184260150000
41551737,Whitleyville,TN,OTHER,782 N Fork Ln,38588,,1.5,209500,-85.72238,36.484257,SINGLE_FAMILY,317988.0,209500.0,1400,1993-07-09,26725.0,2022.0,00700703000
240294289,Clovis,CA,SOLD,3741 Euphoria Pl,93619,3.0,3.0,385000,-119.6386,36.81428,SINGLE_FAMILY,2052.0,399000.0,2162,2022-03-30,392700.0,2023.0,55344310
122761954,Hudson,NH,OTHER,107 Kimball Hill Rd #B,03051,2.0,1.5,363200,-71.37959,42.76881,CONDO,108464.0,363200.0,2444,2002-06-26,312600.0,2022.0,HDSOM179B043L002
34397532,Cincinnati,OH,OTHER,7752 Montgomery Rd UNIT 5,45236,3.0,2.5,198400,-84.38446,39.19531,TOWNHOUSE,,198400.0,2023,2017-02-06,51790.0,2023.0,6000211039500
236397242,Buffalo,MO,OTHER,88 Red Top Rd,65622,2.0,1.0,175600,-93.14187,37.558716,SINGLE_FAMILY,43560.0,175600.0,950,,15710.0,2023.0,108028000000010000
250940124,Papillion,NE,OTHER,11531 S 118th St,68046,4.0,4.0,768000,-96.09781,41.13795,SINGLE_FAMILY,15071.0,768000.0,5128,2021-04-02,567734.0,2022.0,011602889
75649155,Olathe,KS,OTHER,13901 S Summertree Ln,66062,4.0,2.5,334500,-94.77406,38.875668,SINGLE_FAMILY,9148.0,334500.0,1925,2011-07-11,34396.0,2023.0,DP745000000059
180460031,Fort Wayne,IN,OTHER,1645 Shavono Cv,46845,4.0,4.0,519000,-85.16563,41.205654,SINGLE_FAMILY,13998.0,519000.0,3499,2015-05-21,514700.0,2023.0,020229126006000058
19533296,Mountain View,CA,OTHER,668 Leona Ln,94040,4.0,2.0,3030000,-122.08269,37.375095,SINGLE_FAMILY,6120.0,3030000.0,5468,1999-04-30,776006.0,2023.0,19318015
16362356,Camarillo,CA,SOLD,816 Calle Los Gatos,93010,3.0,3.0,700000,-119.07506,34.2246,TOWNHOUSE,1899.0,784700.0,4099,2021-11-29,714000.0,2023.0,1570160605
26496222,Angleton,TX,OTHER,105 Finch Ln,77515,3.0,1.5,190600,-95.406006,29.193888,SINGLE_FAMILY,8359.0,190600.0,1548,2020-03-24,113366.0,2023.0,16700019000
14061502,Greeley,CO,OTHER,4903 W 6th St,80634,3.0,4.0,444800,-104.75894,40.42809,SINGLE_FAMILY,8778.0,444800.0,2323,1996-01-26,29350.0,2023.0,095903403034
91742347,Zeeland,MI,PENDING,1910 Greenview Ct,49464,3.0,3.0,329000,-85.93556,42.80333,SINGLE_FAMILY,7840.0,367700.0,2988,2022-07-11,,2023.0,701723303017
2062571305,Deerfield Beach,FL,SOLD,187 Lyndhurst M #187,33442,1.0,2.0,109900,-80.1365,26.309406,CONDO,,131600.0,1098,2022-08-22,,,484203JH0030
333899360,Plymouth,MI,OTHER,13786 Emrick Dr,48170,,4.5,1194000,-83.5075,42.37973,SINGLE_FAMILY,31798.0,1194000.0,8398,2020-10-29,477700.0,2023.0,78034990009703
30998593,Spencerport,NY,OTHER,446 Trimmer Rd,14559,3.0,1.0,237000,-77.8213,43.21305,SINGLE_FAMILY,42253.0,237000.0,2028,2015-02-05,123400.0,2023.0,2640890710413
82045079,Tampa,FL,OTHER,10563 Coral Key Ave,33647,4.0,3.0,484200,-82.300575,28.153004,SINGLE_FAMILY,5130.0,484200.0,2910,2011-03-21,156312.0,2022.0,2027105QZ000016000290A
47193790,Largo,FL,OTHER,1849 Betty Ln,33770,3.0,2.0,388500,-82.78314,27.929089,SINGLE_FAMILY,9147.0,388500.0,2714,2018-10-16,216346.0,2022.0,272915770400020170
74206121,Zeeland,MI,SOLD,229 E Lincoln Ave,49464,4.0,3.0,320000,-86.012924,42.808933,SINGLE_FAMILY,26136.0,361600.0,2999,2022-12-28,,2023.0,701719129015
91890359,Eliot,ME,OTHER,71 Greenwood St,03903,2.0,1.5,430000,-70.78275,43.11555,SINGLE_FAMILY,10018.0,430000.0,2500,2013-11-26,234700.0,2022.0,ELIOM10B52L
1932447,Plymouth,MN,OTHER,2120 Lancaster Ln N,55441,3.0,3.0,483600,-93.40224,45.002274,SINGLE_FAMILY,17424.0,483600.0,2566,2018-12-07,427400.0,2023.0,2511822140066
40999997,Fairfield Glade,TN,RECENTLY_SOLD,146 Anglewood Dr,38558,3.0,2.0,296000,-84.89832,36.002815,SINGLE_FAMILY,14810.0,315000.0,1999,2023-10-05,56300.0,2023.0,077G A 028.00
39588926,Toms River,NJ,OTHER,40 Nanlyn Ter,08753,3.0,3.0,543100,-74.20504,39.98216,SINGLE_FAMILY,13749.0,543100.0,3499,1984-06-27,418500.0,2023.0,08005711600008
46171520,Orlando,FL,OTHER,2704 Muscatello St,32837,4.0,2.0,421800,-81.41777,28.385185,SINGLE_FAMILY,7871.0,421800.0,2685,2010-12-14,139975.0,2023.0,292421685510260
103941580,Pengilly,MN,SOLD,14472 County Road 12,55775,4.0,2.0,472000,-93.16298,47.28039,SINGLE_FAMILY,34848.0,501000.0,1914,2022-08-26,,2023.0,144600070
68145193,Sycamore,IL,SOLD,322 E Maplewood Dr,60178,3.0,2.0,290500,-88.671616,42.002293,SINGLE_FAMILY,9583.0,359100.0,2347,2021-12-08,86314.0,2022.0,0628327011
30298567,Cheektowaga,NY,OTHER,158 Crisfield Ave,14206,3.0,1.0,197300,-78.78391,42.880787,SINGLE_FAMILY,3876.0,197300.0,1500,2021-04-05,143000.0,2023.0,14308911370310
38718222,Nutley,NJ,OTHER,151 Prospect St,07110,,,512500,-74.16761,40.813606,SINGLE_FAMILY,5001.0,512500.0,2900,1998-11-19,218000.0,2022.0,1607703000000011
244985652,Saint Augustine,FL,SOLD,230 Sweet Mango Trl,32086,3.0,2.0,330000,-81.321495,29.776083,SINGLE_FAMILY,10018.0,374700.0,2149,2021-07-02,290486.0,2023.0,1845080640
43869555,Miami,FL,OTHER,200 SE 15th Rd APT 8A,33129,1.0,1.5,382800,-80.19131,25.75654,CONDO,,382800.0,2011,2000-06-30,235438.0,2023.0,0141390340060
8379494,Kingman,AZ,RECENTLY_SOLD,4100 Airway Ave,86401,7.0,6.0,587000,-113.97307,35.224552,SINGLE_FAMILY,36154.0,600300.0,3646,2024-02-12,63084.0,2024.0,32218103A
58528262,Fort Worth,TX,OTHER,12209 Sweet Birch Ct,76244,3.0,4.0,424000,-97.257126,32.948116,SINGLE_FAMILY,7274.0,424000.0,3300,2019-05-09,380200.0,2023.0,07641591
10113748,Easton,PA,OTHER,102 Marruth Ave E,18040,3.0,1.5,334400,-75.21423,40.70734,SINGLE_FAMILY,13300.0,334400.0,2299,2001-07-10,67900.0,2023.0,K9SE31190311
133694374,East Amherst,NY,OTHER,93 Nicole Ct,14051,2.0,2.0,514600,-78.72942,43.025703,SINGLE_FAMILY,7840.0,514600.0,2514,2016-12-19,110519.0,2023.0,1422894206118
74294904,Bedford,NH,OTHER,1 Camelot Dr,03110,5.0,2.5,811000,-71.5008,42.92446,SINGLE_FAMILY,65340.0,811000.0,4208,2018-05-16,553500.0,2022.0,BEDDM33B12L5
88424471,Belleville,MI,OTHER,111 W Wabash Ave,48111,,1.0,216000,-83.48737,42.203396,SINGLE_FAMILY,7405.0,216000.0,1400,2002-12-27,78100.0,2023.0,31109020057000
43086818,Wilton Manors,FL,OTHER,1957 Coral Gardens Dr,33306,3.0,2.0,1105100,-80.12134,26.16278,SINGLE_FAMILY,7492.0,1105100.0,4999,2013-04-08,489950.0,2023.0,494225100240
34261655,Cincinnati,OH,OTHER,763 Froome Ave,45232,3.0,1.0,158100,-84.51871,39.175926,SINGLE_FAMILY,4356.0,158100.0,1500,2003-04-11,,2023.0,2190051010400
53383420,Ambler,PA,OTHER,338 Colby Ln,19002,4.0,4.5,1104400,-75.20049,40.223026,SINGLE_FAMILY,20037.0,1104400.0,6213,2002-04-08,435730.0,2023.0,360002318202
34206954,Cincinnati,OH,OTHER,6624 Merwin Ave,45227,3.0,2.0,269100,-84.38312,39.15348,SINGLE_FAMILY,3876.0,269100.0,2278,2017-04-04,56182.0,2023.0,0370002010700
73044704,Newark,DE,OTHER,2 Tally Ho Cir,19711,4.0,3.5,591400,-75.78032,39.70302,SINGLE_FAMILY,49222.0,591400.0,3385,2002-07-01,138900.0,2023.0,0900720047
2054830294,Brentwood,TN,SOLD,416 Portsdale Dr LOT 11,37027,2.0,4.0,333205,-86.68477,35.995876,TOWNHOUSE,1306.0,428800.0,2234,2021-09-23,,,181150A00800CO
333804343,Carlisle,PA,SOLD,1525 Newville Rd,17015,4.0,2.0,950000,-77.24887,40.20274,SINGLE_FAMILY,2732083.0,813800.0,4715,2022-07-15,304900.0,2023.0,46070473018
54467914,Upper Marlboro,MD,OTHER,8911 Town Center Cir #4209,20774,2.0,2.0,293200,-76.84145,38.898445,MULTI_FAMILY,1686.0,293200.0,2234,2015-03-07,186000.0,2023.0,133312295
31657026,Syracuse,NY,SOLD,202 John St,13208,3.0,1.0,82000,-76.14683,43.064377,SINGLE_FAMILY,2178.0,106400.0,1700,2022-09-27,37000.0,2023.0,31150000900000230010000000
202032703,Summerville,SC,RECENTLY_SOLD,132 Daniels Ridge Dr,29485,4.0,3.0,442500,-80.22031,32.965343,SINGLE_FAMILY,7840.0,443100.0,2454,2024-05-17,11781.0,2022.0,1521507016000
45391148,Fort Myers,FL,OTHER,421 Baltimore Ave,33905,2.0,1.0,135800,-81.81957,26.673021,SINGLE_FAMILY,9931.0,135800.0,1749,1999-08-25,62130.0,2023.0,04442520000010050
117809313,Rapid City,SD,OTHER,622 Country Rd W,57701,3.0,2.0,314900,-103.2239,44.12599,SINGLE_FAMILY,6098.0,314900.0,1973,2021-04-02,284100.0,2023.0,2013379002
78804424,Copperas Cove,TX,SOLD,610 S 1st St,76522,3.0,3.0,0,-97.90604,31.120174,SINGLE_FAMILY,7200.0,195400.0,1399,2021-08-19,154297.0,2023.0,121693
63550523,Lubbock,TX,OTHER,6718 85th St,79424,3.0,2.0,235500,-101.96323,33.516758,SINGLE_FAMILY,5600.0,235500.0,1756,2018-08-13,204179.0,2023.0,R166939
94841561,Columbus,GA,OTHER,2525 Norris Rd APT 105,31907,2.0,2.0,168200,-84.939,32.48629,CONDO,,168200.0,1381,2019-04-02,68136.0,2023.0,068050001105
46897579,Royal Palm Beach,FL,OTHER,1506 Lakeview Dr E,33411,2.0,2.0,252900,-80.226585,26.709463,APARTMENT,43560.0,252900.0,2199,2018-09-06,156090.0,2023.0,72414323020150060
123696950,Oklahoma City,OK,SOLD,9460 SW 29th Ter,73128,3.0,2.0,240000,-97.68285,35.435497,SINGLE_FAMILY,6860.0,254300.0,1794,2022-10-28,22253.0,2022.0,9460NONE29th73128
25608439,Mission Viejo,CA,OTHER,26601 Domingo Dr,92692,3.0,2.5,1296900,-117.6474,33.576447,SINGLE_FAMILY,4200.0,1296900.0,4500,1989-10-27,465953.0,2023.0,78227270
25480300,Newport Beach,CA,OTHER,14 Rue Deauville,92660,3.0,3.0,3297700,-117.869446,33.627575,SINGLE_FAMILY,7840.0,3297700.0,11499,2009-09-10,1550870.0,2023.0,44222111
61185035,Woodbridge,VA,OTHER,16907 Chapel Hill Ct,22191,5.0,5.0,898400,-77.27268,38.59533,SINGLE_FAMILY,11238.0,898400.0,4133,2002-12-31,759300.0,2023.0,8390327022
30156811,Buffalo,NY,OTHER,56 Virgil Ave,14216,6.0,2.0,366700,-78.864845,42.949455,MULTI_FAMILY,6000.0,366700.0,2317,2000-01-31,203000.0,2023.0,1402007863411
6987213,North Las Vegas,NV,OTHER,3903 Barker Way,89032,3.0,2.0,422000,-115.18801,36.23042,SINGLE_FAMILY,10454.0,422000.0,1899,1994-09-12,89920.0,2024.0,13908114056
60105289,Vernon,CT,OTHER,49 Richard Rd,06066,4.0,2.5,399000,-72.473434,41.80482,SINGLE_FAMILY,14810.0,399000.0,3469,2013-02-11,169760.0,2023.0,VERNM14B0167L00012
45311785,Leesburg,FL,SOLD,2406 Woodside Dr,34748,2.0,2.0,250000,-81.88708,28.844666,SINGLE_FAMILY,12900.0,265400.0,1849,2022-12-28,164476.0,2023.0,101924065000002100
105187038,Fort Gaines,GA,OTHER,470 Mount Calvary Rd,39851,3.0,3.0,314300,-84.97766,31.49382,SINGLE_FAMILY,656884.0,314300.0,2016,2019-09-23,62692.0,2023.0,029010D
29734251,Binghamton,NY,OTHER,39 Mill Rd,13901,3.0,2.0,155400,-75.90282,42.178825,SINGLE_FAMILY,43560.0,155400.0,1914,2005-07-28,60700.0,2023.0,03240009415112
71771016,West Des Moines,IA,OTHER,6255 Beechtree Dr UNIT 5204,50266,3.0,2.0,190000,-93.79438,41.57195,CONDO,,190000.0,1199,2005-01-21,160690.0,2023.0,1612480108
54095386,Lubbock,TX,OTHER,10315 Knoxville Pl,79423,3.0,2.5,258300,-101.89287,33.499996,SINGLE_FAMILY,5166.0,258300.0,1849,2016-03-31,250226.0,2023.0,R142734
85334499,Brownsburg,IN,OTHER,705 Kingston Cir,46112,3.0,2.0,262100,-86.38608,39.859695,SINGLE_FAMILY,9583.0,262100.0,1794,2006-06-15,206800.0,2023.0,320702278001000026
55286285,Surprise,AZ,OTHER,15438 W Maui Ln,85379,,2.0,346200,-112.391624,33.62115,SINGLE_FAMILY,6629.0,346200.0,1608,2002-10-03,25100.0,2023.0,50195455
114046249,Fincastle,KY,OTHER,4602 Shenandoah Dr,40241,1.0,1.0,203300,-85.54379,38.309933,SINGLE_FAMILY,9470.0,203300.0,1498,2006-07-25,124910.0,2020.0,165605630000
20986502,Gardena,CA,OTHER,14510 S Denver Ave,90248,3.0,2.0,776800,-118.28411,33.89998,SINGLE_FAMILY,5690.0,776800.0,3800,1997-03-06,241044.0,2023.0,6119008024
62547469,Uncasville,CT,OTHER,33 Glen Crag Pl,06382,3.0,3.0,480900,-72.11686,41.46447,SINGLE_FAMILY,46609.0,480900.0,3058,2000-08-04,244090.0,2023.0,MONTM040B006L013
33986573,Reynoldsburg,OH,SOLD,664 Bainbrook Ct,43068,4.0,2.0,246000,-82.813736,39.96909,SINGLE_FAMILY,9583.0,287800.0,1898,2022-07-12,74550.0,2023.0,060004362
71059573,Ocoee,FL,OTHER,2545 Azzurra Ln,34761,4.0,2.0,443100,-81.55595,28.60693,SINGLE_FAMILY,9000.0,443100.0,2595,2016-07-05,289694.0,2023.0,282206924401630
106458654,Manistee,MI,OTHER,709 Maple St,49660,4.0,1.0,203200,-86.32378,44.23894,SINGLE_FAMILY,7405.0,203200.0,1687,2017-11-30,67800.0,2023.0,5164772103
12572885,Vinton,VA,OTHER,220 W Augusta Ave,24179,3.0,1.0,167800,-79.90246,37.275448,SINGLE_FAMILY,43560.0,167800.0,1650,1976-01-01,136400.0,2023.0,060150524000000
102886172,Spencer,IN,OTHER,1114 W Porter Ridge Rd,47460,3.0,2.0,149700,-86.7891,39.184616,MANUFACTURED,42253.0,149700.0,912,2013-12-23,88000.0,2023.0,601730300130010016
65930223,Cumberland,RI,OTHER,30 Linwood Rd,02864,4.0,2.0,495400,-71.40205,41.948933,SINGLE_FAMILY,9583.0,495400.0,3231,2020-05-26,363200.0,2023.0,CUMBM021B0395L000
118367762,Philadelphia,PA,OTHER,2415 Roma Dr,19145,4.0,3.0,682300,-75.190025,39.91289,TOWNHOUSE,4410.0,682300.0,3436,2015-07-07,610900.0,2023.0,262403100
6571732,Lincoln,NE,OTHER,1224 Campfire Cir,68512,3.0,3.5,329300,-96.70383,40.74625,SINGLE_FAMILY,8276.0,329300.0,1980,1993-06-28,296800.0,2023.0,0914404010000
858375,Urbandale,IA,OTHER,3932 64th St,50322,3.0,1.0,236100,-93.70567,41.632843,SINGLE_FAMILY,8450.0,236100.0,1562,2016-07-11,234700.0,2023.0,31202932000000
170947131,Port Orange,FL,OTHER,822 Sugar House Blvd,32129,2.0,1.5,207400,-81.00806,29.146206,SINGLE_FAMILY,,207400.0,1632,2004-10-14,58211.0,2023.0,633708010050
124514139,Mandan,ND,SOLD,1616 12th Ave SE,58554,2.0,1.0,0,-100.87499,46.809334,SINGLE_FAMILY,7013.0,200900.0,1294,2023-06-23,8074.0,2023.0,654228000
52267822,Fayetteville,GA,OTHER,305 Grooms Rd,30215,,,798900,-84.481316,33.346275,SINGLE_FAMILY,313632.0,798900.0,4143,1994-05-16,285376.0,2023.0,0436083
246650924,Bandera,TX,OTHER,4732 Fm 470,78003,2.0,2.0,480200,-99.17294,29.696926,SINGLE_FAMILY,653400.0,480200.0,1398,2018-10-10,343200.0,2023.0,00139201800027
1317927,Indianapolis,IN,OTHER,1235 Country Creek Ct,46234,3.0,2.5,224900,-86.30794,39.782063,SINGLE_FAMILY,4356.0,224900.0,1739,2021-02-17,172600.0,2023.0,490533122069000900
66668179,Garnet Valley,PA,OTHER,110 S Valentine Dr,19060,4.0,3.0,703000,-75.48115,39.865902,SINGLE_FAMILY,6098.0,703000.0,4209,2018-06-29,449340.0,2023.0,13000092080
338813522,Tipp City,OH,SOLD,4204 Forestedge St,45371,2.0,2.0,369671,-84.110916,39.887123,SINGLE_FAMILY,9583.0,414300.0,2808,2023-03-17,2100.0,2022.0,P48003993
58033010,West Haven,CT,OTHER,307 Meloy Rd,06516,3.0,1.5,330800,-72.98023,41.279648,SINGLE_FAMILY,9583.0,330800.0,2929,2006-07-12,127680.0,2023.0,WHAVM0046B0273L0000
2081479785,Richmond,KY,OTHER,525 Kincaid Ln,40475,4.0,2.0,265100,-84.28476,37.704628,SINGLE_FAMILY,8642.0,265100.0,1798,2020-03-18,,,
92209309,Mount Royal,NJ,OTHER,112 Acorn Dr,08061,,,397300,-75.20116,39.80072,SINGLE_FAMILY,1960.0,397300.0,2828,2009-03-18,212200.0,2023.0,03014020300038
203757694,Kannapolis,NC,OTHER,854 Fairway Dr,28081,,3.0,517200,-80.63164,35.528812,SINGLE_FAMILY,52707.0,517200.0,1495,2017-02-17,441172.0,2023.0,155147
118945240,Cedar Rapids,IA,OTHER,1298 32nd St NE,52402,3.0,1.0,110800,-91.656204,42.010674,SINGLE_FAMILY,,110800.0,1300,2008-06-24,89400.0,2023.0,141033102000000
56630043,Weymouth,MA,OTHER,33 Belmont St,02188,3.0,1.0,646700,-70.96999,42.19491,SINGLE_FAMILY,8276.0,646700.0,3200,2009-06-30,531500.0,2023.0,WEYMM32B410L039
64658644,Kailua Kona,HI,OTHER,78-7002 Ola Kino St,96740,3.0,4.0,2218300,-155.9526,19.567507,SINGLE_FAMILY,15681.0,2218300.0,7945,2020-03-31,1558300.0,2023.0,780110480000
55848294,Hyannis,MA,OTHER,800 Bearses Way APT 3WC,02601,2.0,2.0,275300,-70.30471,41.671303,CONDO,,275300.0,2932,2001-11-09,173800.0,2023.0,HYANM294L0610CA
3760347,River Forest,IL,OTHER,714 William St,60305,3.0,3.0,852700,-87.81046,41.892597,SINGLE_FAMILY,8899.0,852700.0,5269,2019-03-27,56661.0,2022.0,1512202024
85638109,Kendallville,IN,OTHER,11717 E 415 N,46755,,1.5,170700,-85.19895,41.411472,MANUFACTURED,148975.0,170700.0,1152,2008-10-15,148900.0,2023.0,570912200012000003
86069595,Chelsea,OK,OTHER,7722 W 420th Rd,74016,2.0,1.0,194700,-95.39431,36.40974,SINGLE_FAMILY,304920.0,194700.0,1198,2017-03-08,11139.0,2023.0,00000422N18E300700
9611393,Allentown,PA,OTHER,2505 E Texas Blvd,18103,4.0,3.0,392800,-75.50558,40.584045,SINGLE_FAMILY,10890.0,392800.0,2800,2017-06-02,213700.0,2023.0,5496138524321
72699685,Meridian,ID,OTHER,3654 E Congressional Dr,83642,3.0,2.0,446300,-116.348816,43.61591,SINGLE_FAMILY,8712.0,446300.0,2100,2015-06-12,365400.0,2023.0,R1618780070
42793774,Panama City Beach,FL,OTHER,4624 Delwood Park Blvd,32408,3.0,2.0,403400,-85.73035,30.157711,SINGLE_FAMILY,6969.0,403400.0,2600,2018-05-11,238776.0,2023.0,32259334000
19410801,Napa,CA,OTHER,1134 Yale Ct,94558,4.0,3.0,1351900,-122.34517,38.314568,SINGLE_FAMILY,12196.0,1351900.0,5500,2011-05-17,818889.0,2023.0,041401003000
10461511,Philadelphia,PA,SOLD,2035 S Hemberger St,19145,3.0,2.0,258000,-75.183586,39.926643,TOWNHOUSE,783.0,273500.0,1900,2022-06-30,139500.0,2023.0,482230900
194076954,Dillon,CO,OTHER,584 Water Dance Dr,80435,4.0,2.25,3743700,-106.082214,39.573822,SINGLE_FAMILY,20908.0,3743700.0,12598,2018-03-05,253478.0,2023.0,6501715
18093729,Indian Wells,CA,OTHER,44820 Lakeside Dr,92210,3.0,4.0,1174500,-116.35554,33.724182,SINGLE_FAMILY,9148.0,1174500.0,5496,2020-06-05,788380.0,2023.0,633720021
54252843,Lititz,PA,OTHER,25 Santa Fe Dr,17543,4.0,2.5,446500,-76.23706,40.156837,SINGLE_FAMILY,15245.0,446500.0,1968,1998-10-02,269500.0,2023.0,6003824200000
96678923,Bellevue,WA,OTHER,7011 172nd Ave SE,98006,5.0,4.25,3538300,-122.11132,47.539288,SINGLE_FAMILY,13696.0,3538300.0,9432,2016-04-01,2526000.0,2023.0,0715010490
31572178,Utica,NY,OTHER,508 Jefferson Ave,13501,5.0,3.0,143200,-75.20775,43.094566,MULTI_FAMILY,16650.0,143200.0,2246,1996-01-11,35000.0,2023.0,30160031963447
10215936,Philadelphia,PA,FOR_SALE,6710 N Smedley St,19126,3.0,3.0,289900,-75.14532,40.05602,TOWNHOUSE,1421.0,275800.0,2295,,154300.0,2023.0,101040600
44218283,Miami,FL,OTHER,7677 SW 103rd Pl,33173,3.0,2.0,526200,-80.36027,25.696743,TOWNHOUSE,1999.0,526200.0,3200,1991-04-01,139209.0,2023.0,3040320160040
42318107,Arlington,TN,OTHER,6920 Brunswick Rd,38002,3.0,1.5,204900,-89.76175,35.314663,SINGLE_FAMILY,93654.0,204900.0,1524,1998-09-17,36600.0,2023.0,L0129A00007
51562569,Jacksonville,NC,OTHER,306 Doris Ave,28540,3.0,1.0,233800,-77.42921,34.778015,SINGLE_FAMILY,20908.0,233800.0,1700,2008-04-23,184788.0,2023.0,009424
70324883,Lago Vista,TX,OTHER,300 Venture Blvd S,78645,3.0,2.0,412400,-97.9927,30.383226,SINGLE_FAMILY,13939.0,412400.0,2400,2016-05-03,467742.0,2023.0,150598
108142051,Waynesboro,VA,OTHER,608 Lynn Ln,22980,3.0,2.0,312100,-78.91075,38.06361,SINGLE_FAMILY,13068.0,312100.0,2163,2019-09-19,206000.0,2022.0,5351624
7744073,Phoenix,AZ,OTHER,4026 W Laurel Ln,85029,,2.0,367100,-112.14609,33.59468,SINGLE_FAMILY,7752.0,367100.0,1682,1974-11-12,25410.0,2023.0,14933180
44474476,Jacksonville,FL,OTHER,1736 Hamilton St,32210,3.0,3.5,853900,-81.72257,30.287233,SINGLE_FAMILY,50266.0,853900.0,4647,2014-10-01,574035.0,2023.0,0680200000
85517730,La Porte,IN,OTHER,6533 W Laura Ln,46350,3.0,2.5,290200,-86.82609,41.66964,SINGLE_FAMILY,17160.0,290200.0,2040,2010-07-21,198100.0,2023.0,460512403024000046
45944019,Hilliard,FL,OTHER,27099 Kristie Cir S,32046,3.0,2.0,251800,-81.93168,30.675327,SINGLE_FAMILY,20473.0,251800.0,2044,2002-02-26,115691.0,2022.0,173N24202000230410
2060169349,San Pedro,CA,SOLD,1445 Longview Ln,90732,3.0,4.0,939800,-118.30475,33.76745,TOWNHOUSE,780.0,1013100.0,3999,2023-01-27,,,
234731181,Boyce,VA,OTHER,200 N Greenway Ave,22620,1.0,3.0,412500,-78.05638,39.09499,SINGLE_FAMILY,19950.0,412500.0,2914,2019-04-19,194500.0,2023.0,21A2A1
8409008,Show Low,AZ,OTHER,2660 W Stock,85901,,,215700,-110.07123,34.243668,MANUFACTURED,7405.0,215700.0,1788,2013-07-22,15255.0,2024.0,30948083
38278445,Laurel Springs,NJ,OTHER,612 Glen Ave,08021,4.0,2.0,343300,-75.01056,39.819828,SINGLE_FAMILY,15002.0,343300.0,3249,2002-08-15,182500.0,2023.0,2000057000000011
7856147,Scottsdale,AZ,OTHER,8525 E Citrus Way,85250,5.0,4.0,1156900,-111.89636,33.529705,SINGLE_FAMILY,14341.0,1156900.0,5461,2006-03-23,69900.0,2023.0,17410295
17336527,Bloomington,CA,OTHER,9615 Magnolia St,92316,3.0,4.0,588700,-117.39786,34.079212,SINGLE_FAMILY,7620.0,588700.0,2900,2020-06-03,426779.0,2023.0,0250082100000
70798714,Land O Lakes,FL,OTHER,21343 Morning Mist Way,34637,,2.5,391600,-82.46254,28.272833,SINGLE_FAMILY,6446.0,391600.0,2640,2006-09-18,302090.0,2023.0,362518003000C000100
44506705,Jacksonville,FL,RECENTLY_SOLD,1795 GRASSINGTON Way S,32223,4.0,2.0,600000,-81.64773,30.141613,SINGLE_FAMILY,,618200.0,3386,2023-07-21,271471.0,2023.0,1060870186
10032089,Lansdale,PA,OTHER,314 Allen Way,19446,3.0,2.0,362300,-75.28983,40.22742,TOWNHOUSE,6969.0,362300.0,2600,2017-09-28,111350.0,2023.0,560000152143
115374374,London,KY,RECENTLY_SOLD,121 Green Meadow Dr,40744,3.0,3.0,312500,-84.086494,37.062748,SINGLE_FAMILY,40075.0,324100.0,2400,2023-07-11,212500.0,2020.0,0924000002.27
219134725,Cedar Key,FL,OTHER,4770 SW County Road 345,32625,3.0,2.0,336400,-82.93502,29.258492,MANUFACTURED,1019303.0,336400.0,2940,2020-11-19,97323.0,2023.0,012850010D
121473120,Ocean Isle Beach,NC,OTHER,561 Westchester Pl SW,28469,4.0,4.0,968300,-78.46652,33.93773,SINGLE_FAMILY,19602.0,968300.0,4505,2020-07-31,759160.0,2023.0,212PB042
34447315,Norwalk,OH,OTHER,4 Birdie Way,44857,3.0,3.0,303600,-82.64307,41.23924,SINGLE_FAMILY,12763.0,303600.0,1975,1994-06-24,82750.0,2022.0,33039A010430000
19820254,San Jose,CA,OTHER,503 Cheyenne Ln,95123,3.0,2.0,1472900,-121.83348,37.245895,SINGLE_FAMILY,5880.0,1472900.0,3992,2016-06-16,853367.0,2023.0,68728011
248583434,Shreveport,LA,SOLD,320 Evangeline Creek Dr,71106,3.0,2.0,0,-93.720924,32.35421,SINGLE_FAMILY,7971.0,324900.0,2434,2021-10-13,26518.0,2021.0,161329102020800
73179463,Fort Wayne,IN,OTHER,2127 Garden Park Dr,46825,3.0,2.0,234900,-85.110886,41.145798,SINGLE_FAMILY,24397.0,234900.0,1749,,206600.0,2023.0,020818204009000072
44010600,Bal Harbour,FL,OTHER,9801 Collins Ave APT 12C,33154,2.0,2.0,1327500,-80.12387,25.89018,CONDO,43000.0,1327500.0,6147,2011-04-21,664628.0,2023.0,1222260230380
18932357,Bakersfield,CA,OTHER,906 Tangerine St,93306,4.0,2.0,282500,-118.92787,35.371677,SINGLE_FAMILY,7840.0,282500.0,1980,2009-04-28,185640.0,2023.0,13322105
40545753,Beloit,WI,OTHER,2118 Roosevelt Ave,53511,3.0,2.0,280100,-89.068275,42.505096,SINGLE_FAMILY,18208.0,280100.0,1616,2012-09-17,156800.0,2022.0,13471250
56897498,Oak Bluffs,MA,OTHER,17 Stone Pound Way,02557,4.0,2.5,2431900,-70.575386,41.418266,SINGLE_FAMILY,12196.0,2431900.0,8021,2002-12-31,1991000.0,2023.0,OAKBM0048B0079L000
7199158,Henderson,NV,OTHER,2232 Ramsgate Dr,89074,2.0,3.0,367600,-115.08725,36.032444,SINGLE_FAMILY,871.0,367600.0,2114,2021-02-24,78161.0,2024.0,17818719017
6092588,Statesville,NC,OTHER,2306 Scalybark Rd,28625,3.0,2.0,268200,-80.84235,35.800453,SINGLE_FAMILY,43560.0,268200.0,1674,2021-01-29,123170.0,2022.0,4755317311000
227236231,Connelly Springs,NC,OTHER,140 Liberty St,28612,3.0,1.0,242200,-81.5263,35.75666,SINGLE_FAMILY,34412.0,242200.0,1598,2016-02-16,181869.0,2023.0,12254
116174141,Oklahoma City,OK,OTHER,11600 Tarantino Dr,73173,4.0,1.0,527700,-97.637665,35.35295,SINGLE_FAMILY,34747.0,527700.0,3399,2013-07-01,47653.0,2023.0,OCC2RDBA262002
13888373,Loveland,CO,OTHER,434 Rossum Dr,80537,3.0,3.0,549800,-105.14602,40.39723,TOWNHOUSE,3780.0,549800.0,2500,2014-11-06,36125.0,2023.0,9517326001
337511184,Three Forks,MT,OTHER,78 Blue Stem Way,59752,4.0,2.0,562800,-111.61287,45.956825,SINGLE_FAMILY,44866.0,562800.0,2400,2020-07-21,488200.0,2023.0,43110404201250000
338854061,Dayton,TN,SOLD,265 Gail Ln,37321,2.0,1.0,139900,-85.01312,35.446964,SINGLE_FAMILY,10890.0,181800.0,1217,2022-01-31,28360.0,2022.0,103PA01900000
24729156,Saline,MI,OTHER,5115 Saline Waterworks Rd,48176,4.0,2.0,492600,-83.8276,42.174995,SINGLE_FAMILY,110641.0,492600.0,3249,1994-05-05,197500.0,2023.0,M1334300025
39545014,Brick,NJ,SOLD,78 Tall Timber Drive,08723,2.0,2.0,630000,-74.09763,40.050224,SINGLE_FAMILY,5227.0,703400.0,2479,2022-01-14,398400.0,2023.0,0700133000000014
41113899,Nashville,TN,OTHER,708 Delray Dr,37209,3.0,2.0,358700,-86.85369,36.155746,SINGLE_FAMILY,5227.0,358700.0,2191,1998-12-02,52875.0,2023.0,09110039700
77548660,Lexington,KY,OTHER,3249 Hunters Point Dr,40515,,2.5,303600,-84.44987,37.986942,SINGLE_FAMILY,6016.0,303600.0,1994,2020-01-10,150700.0,2020.0,20012370
16780079,San Diego,CA,OTHER,8440 Hydra Ln,92126,4.0,2.5,1255100,-117.14212,32.92077,SINGLE_FAMILY,5600.0,1255100.0,4900,2008-04-01,643856.0,2023.0,3090805300
105576402,Taylorville,IL,OTHER,1421 N Lawrence Ave,62568,4.0,1.0,122100,-89.3015,39.56621,SINGLE_FAMILY,10425.0,122100.0,1300,2005-07-21,27733.0,2022.0,17132210502000
3735983,Chicago,IL,OTHER,819 W Dickens Ave #3C,60614,1.0,1.0,385300,-87.64943,41.919827,CONDO,6250.0,385300.0,2500,2020-07-15,32189.0,2021.0,14322280491009
2053719410,Cove Springs,FL,SOLD,3410 CHANCELLOR Court,32043,4.0,2.0,362990,-81.72468,30.012281,SINGLE_FAMILY,,367400.0,2045,2022-11-30,,,32052601446200607
54520845,Chantilly,VA,OTHER,42810 Cedar Hedge St,20152,3.0,3.0,632300,-77.52216,38.911495,CONDO,1742.0,632300.0,2514,2014-04-01,537790.0,2023.0,165191675000
12376389,Sterling,VA,OTHER,46671 Winchester Dr,20164,4.0,2.5,661500,-77.38685,39.022022,SINGLE_FAMILY,9147.0,661500.0,3200,2015-05-01,564600.0,2023.0,013251846000
48337227,Medford,OR,OTHER,549 N Wexford Cir,97504,4.0,2.0,426100,-122.83801,42.335068,SINGLE_FAMILY,9583.0,426100.0,2550,1989-07-25,233000.0,2023.0,10343102
45681870,Hobe Sound,FL,RECENTLY_SOLD,7504 SE Bay Cedar Cir,33455,3.0,2.0,400000,-80.19018,27.110529,SINGLE_FAMILY,6655.0,402600.0,3499,2024-04-18,238161.0,2022.0,343842725000025300
37036761,Marriottsville,MD,OTHER,1080 Driver Rd,21104,,2.5,718300,-76.89425,39.34229,SINGLE_FAMILY,131551.0,718300.0,3623,1983-02-18,484333.0,2023.0,03307824
41181457,Nashville,TN,OTHER,3983 Keeley Dr,37211,3.0,1.5,339100,-86.69663,36.06086,SINGLE_FAMILY,12632.0,339100.0,2191,1987-08-28,53675.0,2023.0,14814010900
61419978,Chesapeake,VA,OTHER,1221 Brigade Dr,23322,3.0,2.0,504100,-76.225784,36.68166,SINGLE_FAMILY,13416.0,504100.0,2882,2021-05-03,429500.0,2023.0,0731005000450
300242998,Rio Vista,CA,SOLD,2071 Lavender Pl,94571,2.0,2.0,407900,-121.71658,38.199505,SINGLE_FAMILY,5001.0,425900.0,2949,2023-01-13,90341.0,2023.0,0176405060
66588295,Bell Buckle,TN,OTHER,214 Cayenne Dr,37020,3.0,2.0,288100,-86.530045,35.63366,SINGLE_FAMILY,44866.0,288100.0,1752,2018-02-05,37275.0,2023.0,024EB00100000
31975246,Flushing,NY,OTHER,11010 Saultell Ave,11368,3.0,1.5,816800,-73.850075,40.739483,SINGLE_FAMILY,1767.0,816800.0,3650,2012-04-13,48180.0,2023.0,019710126
46955681,Clearwater,FL,OTHER,2008 N Keene Rd,33755,,2.0,300300,-82.76339,27.993967,SINGLE_FAMILY,7013.0,300300.0,1545,1996-04-23,77489.0,2022.0,022915982800000020
7784554,Phoenix,AZ,OTHER,1231 W Wood Dr,85029,3.0,2.0,629000,-112.088974,33.60406,SINGLE_FAMILY,12423.0,629000.0,2795,2018-02-02,48080.0,2023.0,15903618
18359660,Concord,CA,OTHER,5509 Pennsylvania Blvd,94521,3.0,2.0,835100,-121.95591,37.947083,SINGLE_FAMILY,7000.0,835100.0,3399,2021-05-07,717000.0,2023.0,1201440110
81539800,Springboro,OH,OTHER,8019 Country Brook Ct,45066,5.0,4.5,1018500,-84.18097,39.55784,SINGLE_FAMILY,55203.0,1018500.0,5956,2010-07-26,254162.0,2022.0,05324150020
92901612,Dover,NH,OTHER,16-20 Rutland St,03820,8.0,5.0,847700,-70.88149,43.18958,MULTI_FAMILY,34412.0,847700.0,4643,2005-06-02,637100.0,2022.0,DOVRM12131BL
28582209,Sour Lake,TX,OTHER,310 W Pineshadows Dr,77659,4.0,2.5,337200,-94.32425,30.155142,SINGLE_FAMILY,32670.0,337200.0,2482,2019-09-30,384144.0,2023.0,007550004700
14912180,McDonough,GA,RECENTLY_SOLD,1120 E Shoreview Rd,30253,5.0,3.0,312000,-84.17582,33.449608,SINGLE_FAMILY,14505.0,316700.0,2349,2023-09-01,134440.0,2023.0,091C01053000
2766615,Chesterfield,MO,RECENTLY_SOLD,1530 Bedford Forge Ct APT 13,63017,2.0,2.0,0,-90.55637,38.64722,CONDO,5967.0,180200.0,1900,2023-04-25,31630.0,2023.0,19S531593
36426747,Lutherville Timonium,MD,OTHER,317 Meadowcroft Ln,21093,5.0,6.0,1212800,-76.599,39.422913,SINGLE_FAMILY,20603.0,1212800.0,7388,2017-10-30,910100.0,2023.0,092000007952
11050053,Greenville,SC,OTHER,40 Wood Pointe Dr UNIT 36,29615,3.0,2.0,288700,-82.33394,34.866886,SINGLE_FAMILY,2003.0,288700.0,1650,2013-04-09,158780.0,2023.0,0543110107500
31977399,Flushing,NY,OTHER,9954 63rd Ave,11374,,,1180500,-73.855255,40.73338,MULTI_FAMILY,2033.0,1180500.0,2365,1994-07-27,93240.0,2023.0,021100134
68284864,Shakopee,MN,OTHER,203 Ardennes Ave W,55379,4.0,4.0,461000,-93.52818,44.773785,SINGLE_FAMILY,7405.0,461000.0,2761,2019-06-20,399300.0,2023.0,273902640
47475666,Sarasota,FL,FOR_SALE,3673 Longmeadow #3-UNIT 18,34235,2.0,2.0,340000,-82.474335,27.365923,CONDO,,320300.0,2023,2002-06-04,155001.0,2023.0,0034032003
70351739,Porter,TX,OTHER,19029 Hammer Ln,77365,3.0,2.0,247800,-95.286194,30.136866,SINGLE_FAMILY,6877.0,247800.0,1759,,216130.0,2023.0,36040003900
11088668,Taylors,SC,OTHER,105 Holburn Ln,29687,3.0,1.5,235300,-82.334564,34.916325,SINGLE_FAMILY,31248.0,235300.0,1470,2000-09-01,93520.0,2023.0,T029010104300
83181413,Clayton,NC,OTHER,104 Willow Oak Trl,27520,4.0,4.0,544400,-78.51966,35.569675,SINGLE_FAMILY,14810.0,544400.0,2928,2018-02-14,362410.0,2023.0,06F04056
15574812,Redwood City,CA,SOLD,432 Oak Ridge Dr,94062,3.0,1.0,1350000,-122.250175,37.46934,SINGLE_FAMILY,6375.0,1644900.0,4347,2022-11-17,1350000.0,2023.0,058304100
103231516,Cape Coral,FL,OTHER,220 SW 26th Ter,33914,3.0,2.0,477400,-81.979485,26.602686,SINGLE_FAMILY,10018.0,477400.0,2370,2021-01-26,443632.0,2023.0,354423C2018520620
75761059,Valley,NE,OTHER,24222 Bauman Ave,68064,3.0,1.0,155300,-96.2956,41.319416,SINGLE_FAMILY,54000.0,155300.0,1674,2015-01-09,22300.0,2023.0,1511600002
47366639,Winter Haven,FL,OTHER,1607 17th St NW,33881,4.0,3.0,510300,-81.7465,28.03911,SINGLE_FAMILY,14374.0,510300.0,3056,2013-05-03,240336.0,2022.0,262819553600000280
35953722,Chattahoochee Hills,GA,OTHER,11745 Upper Wooten Rd,30268,3.0,2.0,253200,-84.76996,33.570423,SINGLE_FAMILY,111077.0,253200.0,1943,2015-08-19,29480.0,2022.0,08240001020317
16722625,Cardiff,CA,OTHER,1651 Somerset Ave #A,92007,3.0,2.5,2239600,-117.27885,33.028004,SINGLE_FAMILY,7000.0,2239600.0,8204,1997-03-03,492308.0,2023.0,2603021500
39525757,Toms River,NJ,OTHER,15 Rodhos St,08757,2.0,2.0,259900,-74.26981,39.977554,SINGLE_FAMILY,5500.0,259900.0,2199,1997-03-26,125300.0,2023.0,060000417700036
2076764584,Sisters,OR,SOLD,134 W Clearpine Dr #104,97759,2.0,2.0,451755,-121.55209,44.300358,SINGLE_FAMILY,3485.0,616500.0,2600,2021-07-23,,,279805
48423356,Lowell,OR,OTHER,39741 Jasper Lowell Rd,97452,4.0,2.5,497900,-122.78987,43.95019,SINGLE_FAMILY,46174.0,497900.0,2555,2005-02-28,293669.0,2023.0,0811404
80506842,Piedmont,SC,OTHER,137 Kingsland Way,29673,3.0,3.0,442200,-82.519875,34.708168,SINGLE_FAMILY,22339.0,442200.0,2350,1999-11-01,13620.0,2022.0,2160901020
51257819,Loveland,OH,OTHER,6703 Acorn Dr,45140,3.0,1.0,218500,-84.20109,39.236313,SINGLE_FAMILY,13068.0,218500.0,1828,2010-08-30,41340.0,2023.0,114343C198
109212008,Oxford,AL,SOLD,1311 Meadowbrook Ln,36203,3.0,2.0,155000,-85.86186,33.595833,SINGLE_FAMILY,16117.0,175000.0,1200,2022-10-03,13880.0,2023.0,2207360004014000
896559,Trussville,AL,SOLD,213 Linn Dr,35173,4.0,5.0,570000,-86.62991,33.61766,SINGLE_FAMILY,24393.0,735800.0,4519,2021-09-15,70500.0,2022.0,1200271009015.000
241856857,Wentzville,MO,OTHER,935 Mule Creek Dr,63385,3.0,2.0,374500,-90.86896,38.837173,SINGLE_FAMILY,10628.0,374500.0,2315,2017-06-30,62394.0,2023.0,40010C4090006110000000
31918294,Patterson,NY,SOLD,7 Center Street,12563,5.0,4.0,325000,-73.605156,41.51246,MULTI_FAMILY,10890.0,620600.0,7429,2022-05-10,629000.0,2023.0,37240000302000010500000000
70181108,Chesnee,SC,OTHER,124 Blue Coat Rd,29323,3.0,1.5,163100,-81.81632,35.14288,SINGLE_FAMILY,40946.0,163100.0,1257,2005-11-16,5950.0,2023.0,0130000012000
91501004,Sturgeon Lake,MN,OTHER,8973 1st Ave,55783,1.0,0.75,95000,-92.828,46.3804,SINGLE_FAMILY,14000.0,95000.0,1450,2020-03-30,64400.0,2023.0,465055000
44597756,Jacksonville,FL,OTHER,2359 Aztec Dr W,32246,3.0,2.5,495800,-81.469666,30.307247,SINGLE_FAMILY,21315.0,495800.0,2999,1993-03-01,195677.0,2023.0,1652843140
174487358,Branford,CT,OTHER,63 Meadow Wood Rd,06405,3.0,2.5,686700,-72.78238,41.27756,SINGLE_FAMILY,108900.0,686700.0,3750,2018-01-05,323300.0,2023.0,BRANMG08000B001L00010
13429898,Denver,CO,SOLD,3550 S Harlan Street  Unit 308,80235,3.0,2.0,365000,-105.0585,39.651405,CONDO,,366700.0,2299,2023-03-31,19610.0,2023.0,901113133
19637920,Saratoga,CA,SOLD,21178 Maria Ln,95070,4.0,5.0,4388888,-122.044975,37.291958,SINGLE_FAMILY,38250.0,5349700.0,10348,2021-09-17,2095015.0,2023.0,36621014
42707688,Gainesville,FL,OTHER,4403 Black Forest Way,32605,3.0,2.5,235300,-82.35921,29.694704,SINGLE_FAMILY,1742.0,235300.0,1900,2012-08-07,92752.0,2023.0,06076053024
34480707,Mentor,OH,OTHER,5 Meadowlawn Dr UNIT 16,44060,3.0,2.0,147500,-81.32161,41.66887,CONDO,16117.0,147500.0,1797,2018-10-04,30740.0,2022.0,16A018F000400
50033317,Carrboro,NC,OTHER,403 Lindsay St,27510,3.0,1.0,585200,-79.07537,35.915802,SINGLE_FAMILY,10454.0,585200.0,1999,2021-04-30,329900.0,2023.0,9778785118
238180411,Charleston,SC,OTHER,2747 Rutherford Way,29414,4.0,3.5,755700,-80.06236,32.808258,SINGLE_FAMILY,6969.0,755700.0,3499,2021-02-18,21200.0,2023.0,3070600335
39171762,Monmouth Junction,NJ,OTHER,14 White Oak Ct,08852,2.0,3.0,518600,-74.54802,40.387955,TOWNHOUSE,,518600.0,2941,2018-04-18,140400.0,2023.0,21000850100003
66801060,Shepherdsville,KY,OTHER,836 Meadowland Trl,40165,3.0,4.0,451600,-85.589355,37.97831,SINGLE_FAMILY,88818.0,451600.0,2849,2008-10-09,268460.0,2020.0,07200000106Y
72360765,Nampa,ID,OTHER,46 S Pit Ln,83687,4.0,2.0,510400,-116.502914,43.57252,SINGLE_FAMILY,32670.0,510400.0,2294,,483100.0,2023.0,306510000
34620247,Toledo,OH,SOLD,1852 Nelson Ave,43609,3.0,2.0,60000,-83.58889,41.626022,MULTI_FAMILY,4599.0,,863,2023-05-24,21700.0,2023.0,0106807
85610555,Martinsville,IN,OTHER,3907 Voyles Rd,46151,3.0,2.0,310600,-86.35535,39.373127,SINGLE_FAMILY,250470.0,310600.0,1814,2018-01-31,241200.0,2023.0,551419300005003012
71410042,West Fargo,ND,SOLD,718 36th Ave W,58078,4.0,4.0,0,-96.91226,46.82697,SINGLE_FAMILY,9583.0,409600.0,2745,2022-09-09,353600.0,2023.0,02019001220000
60549761,Naples,FL,SOLD,6597 Nicholas Blvd APT 904,34108,4.0,4.0,4450000,-81.81302,26.230345,CONDO,0.0,5325900.0,43541,2022-02-03,3806250.0,2023.0,25334000829
12739007,Salt Lake City,UT,OTHER,1111 S Concord St,84104,3.0,3.0,413800,-111.926414,40.745415,SINGLE_FAMILY,6969.0,413800.0,2167,2003-05-21,162690.0,2023.0,15113030140000
10820306,Bonneau,SC,RECENTLY_SOLD,2160 N Highway 17a,29431,3.0,2.0,226500,-79.89148,33.275665,SINGLE_FAMILY,8712.0,228800.0,1616,2024-04-30,5700.0,2022.0,0870007035
337486411,Fort Mohave,AZ,SOLD,1584 E El Rodeo Rd,86426,4.0,2.0,275000,-114.59383,35.011353,MANUFACTURED,25264.0,321900.0,1309,2021-11-29,15436.0,2024.0,22717011A
70808922,Oak Hill,FL,OTHER,245 Cummings St,32759,2.0,2.0,247300,-80.85678,28.857204,SINGLE_FAMILY,8232.0,247300.0,1889,2005-10-12,65488.0,2023.0,950702000420
57193942,Kingston,MA,OTHER,12 West St,02364,4.0,2.0,597600,-70.785126,41.99178,SINGLE_FAMILY,30000.0,597600.0,3734,2012-05-17,412800.0,2023.0,KINGM0041B0015
7064403,Las Vegas,NV,SOLD,5136 Blanton Dr,89122,4.0,2.0,314999,-115.06114,36.10292,SINGLE_FAMILY,6969.0,378400.0,2303,2021-11-09,48437.0,2024.0,16121411083
42330535,Cordova,TN,OTHER,10625 Latting Rd,38016,5.0,4.0,723900,-89.70907,35.1789,SINGLE_FAMILY,209088.0,723900.0,4673,2011-05-02,144125.0,2023.0,D021000187
102645854,Spanaway,WA,SOLD,1619 177th Street E,98387,3.0,3.0,485000,-122.40774,47.096222,SINGLE_FAMILY,4900.0,547100.0,2999,2021-08-20,472400.0,2023.0,5003660410
66835823,Wentzville,MO,OTHER,2244 Autumn Trace Pkwy,63385,3.0,3.0,335000,-90.89699,38.835262,SINGLE_FAMILY,10018.0,335000.0,2146,2004-11-22,52800.0,2023.0,4000993480000020000000
25942530,Elk Grove,CA,OTHER,8959 El Mirador Dr APT 2,95624,2.0,1.0,255000,-121.36845,38.405106,CONDO,,255000.0,1999,2015-08-04,108088.0,2023.0,12502910220002
61472841,Charleston,SC,OTHER,1705 Lotus Ln,29412,3.0,3.0,612800,-79.96356,32.69757,SINGLE_FAMILY,6969.0,612800.0,3449,2020-10-27,14200.0,2022.0,4310000175
337938917,Saint Cloud,FL,SOLD,4180 Bull St,34772,4.0,3.0,421095,-81.262924,28.217768,SINGLE_FAMILY,7405.0,482600.0,2649,2021-11-24,387400.0,2023.0,132630011700011910
11573664,Pittsburgh,PA,OTHER,1445 Orchardview Dr,15220,4.0,2.5,363500,-80.060394,40.403713,SINGLE_FAMILY,15000.0,363500.0,2407,1990-02-09,197100.0,2024.0,0064B00046000000
30717930,Brooklyn,NY,OTHER,1387 E 2nd St,11230,3.0,2.0,929600,-73.97292,40.615906,TOWNHOUSE,1515.0,929600.0,3999,2021-01-26,49560.0,2023.0,065650090
81476742,Lakeland,FL,OTHER,3310 Waterlute Way,33811,4.0,3.0,400900,-82.040115,28.004473,SINGLE_FAMILY,7653.0,400900.0,2714,2020-08-21,187459.0,2022.0,232831138049004090
53715314,Wingdale,NY,SOLD,26 Nicole Lane,12594,3.0,2.0,405000,-73.54915,41.66003,SINGLE_FAMILY,28750.0,478700.0,3808,2022-04-13,139300.0,2023.0,1326007160014175740000
73987556,Fenton,MI,OTHER,11434 Audubon Dr,48430,3.0,3.0,311300,-83.711685,42.86043,SINGLE_FAMILY,21780.0,311300.0,2199,2018-06-23,114900.0,2023.0,0602677031
6147568,Charlotte,NC,OTHER,11809 Mourning Dove Ln,28269,3.0,2.5,368100,-80.75806,35.360607,SINGLE_FAMILY,9583.0,368100.0,1895,2019-08-05,348300.0,2023.0,02952102
57519430,Westwood,MA,OTHER,156 Sunrise Rd,02090,4.0,2.0,1038400,-71.23979,42.197533,SINGLE_FAMILY,16117.0,1038400.0,3954,2015-04-24,675800.0,2023.0,WWOOM035B000L030
68295136,Egg Harbor Township,NJ,OTHER,24 Daisy Dr,08234,,,496700,-74.63302,39.41535,SINGLE_FAMILY,10998.0,496700.0,2800,2009-03-17,279100.0,2023.0,0802712000000011
59936075,Stone Mountain,GA,OTHER,6103 Wurtenburg Ln,30087,4.0,2.5,336700,-84.138695,33.780796,SINGLE_FAMILY,13068.0,336700.0,2416,2001-06-13,133320.0,2023.0,1802210026
18044837,Hemet,CA,PENDING,44263 Charlotte Dr,92544,4.0,2.0,749000,-116.88859,33.739086,SINGLE_FAMILY,20038.0,739100.0,2999,2011-07-01,659000.0,2023.0,553252015
174087408,Southington,CT,OTHER,697 S End Rd UNIT 26,06479,2.0,1.5,314300,-72.87243,41.563892,CONDO,,314300.0,2050,2016-06-22,127760.0,2023.0,SOUTM023L025U0026
2772509,Saint Louis,MO,OTHER,8835 Pine Ave,63144,3.0,3.0,449400,-90.35006,38.62298,SINGLE_FAMILY,7405.0,449400.0,2940,2015-11-25,69820.0,2023.0,20K212483
106099260,Natchitoches,LA,SOLD,215 Aloys Cir,71457,3.0,2.0,0,-93.072716,31.748707,SINGLE_FAMILY,9709.0,202100.0,1370,2021-07-19,14730.0,2022.0,0011119210AJ
25180517,Westminster,CA,OTHER,7101 Maple St,92683,2.0,2.0,834400,-118.0052,33.75389,SINGLE_FAMILY,6525.0,834400.0,3399,2011-09-12,331997.0,2023.0,09616111
54029406,New Port Richey,FL,SOLD,6050 Chesham Dr APT 6,34653,2.0,2.0,76000,-82.71391,28.219084,CONDO,22453.0,126000.0,1381,2021-12-30,69540.0,2023.0,162616055B011000030
10956790,Summerville,SC,SOLD,203 Dogwood Cir,29485,3.0,2.0,322500,-80.177956,33.000694,SINGLE_FAMILY,23522.0,395300.0,2441,2022-05-24,19242.0,2022.0,1450305014000
58003203,Wallingford,CT,SOLD,28 Gregory Rd,06492,4.0,3.0,360000,-72.83986,41.48547,SINGLE_FAMILY,29185.0,495800.0,3300,2022-03-08,219800.0,2023.0,2050599
18843229,McKinleyville,CA,FOR_SALE,3399 Barnett Ave,95519,3.0,2.0,589000,-124.10819,40.96707,SINGLE_FAMILY,24393.0,557000.0,2600,2020-08-19,416160.0,2023.0,511052003000
12954193,Thornton,CO,OTHER,1012 E 130th Pl,80241,3.0,3.0,587400,-104.97375,39.934586,SINGLE_FAMILY,8646.0,587400.0,2999,2020-06-02,40790.0,2023.0,0157326305026
120687975,Tappahannock,VA,OTHER,813 Kino Rd #A,22560,4.0,2.5,366900,-76.91029,37.890316,SINGLE_FAMILY,135471.0,366900.0,2400,2002-06-21,261100.0,2023.0,3698A
54820462,Milliken,CO,OTHER,576 S Honeylocust Ct,80543,4.0,3.0,481500,-104.871056,40.325306,SINGLE_FAMILY,10018.0,481500.0,2864,2012-07-18,30740.0,2023.0,105910002012
47419115,Babson Park,FL,OTHER,151 Britton St,33827,3.0,2.0,307800,-81.53479,27.823711,SINGLE_FAMILY,54132.0,307800.0,2033,2007-08-30,113736.0,2022.0,283032953400000611
38645088,East Orange,NJ,OTHER,135 William St,07017,7.0,3.0,630600,-74.200905,40.760773,MULTI_FAMILY,5510.0,630600.0,3528,2018-11-13,410500.0,2022.0,0500173000000025
49247236,Tacoma,WA,OTHER,648 S Howard St,98465,2.0,1.0,386200,-122.53037,47.253716,SINGLE_FAMILY,6995.0,386200.0,1923,2000-06-30,357600.0,2023.0,4485000730
2735597,Saint Louis,MO,OTHER,1250 George St,63130,2.0,1.0,105400,-90.32242,38.672066,SINGLE_FAMILY,3702.0,105400.0,1200,2008-11-12,18130.0,2023.0,17J511055
337433650,Garner,NC,SOLD,155 Nutmeg Ln,27529,4.0,2.5,307000,-78.57236,35.619534,SINGLE_FAMILY,6534.0,401500.0,2294,2021-09-01,286530.0,2023.0,06E02072Z
71393854,Locust,NC,OTHER,114 Deerfield Ln,28097,4.0,2.0,232100,-80.35532,35.278297,MANUFACTURED,87120.0,232100.0,1145,1999-03-31,79868.0,2022.0,559502585945
23289824,Vancouver,WA,OTHER,11910 SE McGillivray Blvd,98683,4.0,3.0,499600,-122.54979,45.613335,SINGLE_FAMILY,10018.0,499600.0,2850,2011-07-29,410628.0,2023.0,114729074
3376481,Evanston,IL,OTHER,2758 Broadway Ave,60201,4.0,2.5,819900,-87.69851,42.068573,SINGLE_FAMILY,9540.0,819900.0,5022,1998-04-29,60100.0,2022.0,0534414010
84567991,Milton Freewater,OR,OTHER,225 Locust Ave,97862,3.0,3.0,397200,-118.39125,45.92761,SINGLE_FAMILY,10019.0,397200.0,2495,2001-05-18,241080.0,2022.0,5N3512BC06000
47314299,Winter Haven,FL,OTHER,5961 SE Foxhollow Dr,33884,3.0,2.0,195600,-81.651276,27.984982,MANUFACTURED,13010.0,195600.0,1800,2019-05-08,85451.0,2022.0,272906855540000370
114974392,Park Rapids,MN,OTHER,15198 Gilly Ln,56470,3.0,3.0,700000,-95.04836,46.983807,SINGLE_FAMILY,58370.0,700000.0,4233,2015-10-30,461700.0,2022.0,024000500
44975104,Brandon,FL,OTHER,415 Timber Creek Dr,33510,3.0,2.0,351700,-82.29383,27.961777,SINGLE_FAMILY,10454.0,351700.0,2191,1992-06-01,105932.0,2022.0,2029152BW000001000210U
67457599,Pensacola,FL,OTHER,1924 Crown Pointe Blvd,32506,,11.0,431500,-87.39022,30.40457,SINGLE_FAMILY,12287.0,431500.0,2299,2003-02-18,404647.0,2023.0,152S311100007002
19373654,Salinas,CA,OTHER,12326 Maravilla Dr,93908,3.0,4.0,1700500,-121.75685,36.56417,SINGLE_FAMILY,67518.0,1700500.0,5614,2018-01-02,1022009.0,2023.0,173111026000
298349832,Palm Harbor,FL,OTHER,830 Park Ct,34683,,,603800,-82.758446,28.091272,SINGLE_FAMILY,13216.0,603800.0,3118,2014-10-23,266829.0,2022.0,362715965860190370
208774297,Fallsburg,NY,OTHER,440 52,12733,2.0,1.0,245400,-74.61145,41.73821,SINGLE_FAMILY,40510.0,245400.0,1426,2005-08-17,80000.0,2023.0,482889222171
68599214,Saint Petersburg,FL,SOLD,5350 60th Ave N,33709,2.0,3.0,320000,-82.70745,27.826612,TOWNHOUSE,1215.0,322100.0,2299,2022-04-04,167226.0,2022.0,333016915310100020
33508788,Fairview Park,OH,OTHER,3745 W 213th St,44126,4.0,2.0,253900,-81.85659,41.456684,SINGLE_FAMILY,10018.0,253900.0,1800,2013-06-19,62160.0,2022.0,32330040
67619296,Waxahachie,TX,SOLD,306 Myrtle Ave,75165,3.0,2.0,0,-96.83302,32.40472,SINGLE_FAMILY,8581.0,306900.0,2208,2022-03-25,319000.0,2023.0,173545
13042318,Aurora,CO,OTHER,13053 E Exposition Ave,80012,5.0,4.0,542600,-104.83704,39.701378,SINGLE_FAMILY,7405.0,542600.0,3194,2017-08-25,38432.0,2023.0,197313413005
23667850,Point Roberts,WA,OTHER,713 Marine Dr,98281,2.0,1.0,1126200,-123.08283,48.97714,SINGLE_FAMILY,54450.0,1126200.0,3818,1996-05-01,1064848.0,2023.0,4053095044210000
24464217,West Bloomfield,MI,OTHER,2460 Weathervane,48324,3.0,2.5,425200,-83.41566,42.600346,SINGLE_FAMILY,11238.0,425200.0,2999,2003-02-12,176970.0,2023.0,1805376041
122275585,Holly Springs,NC,OTHER,212 Pointe Park Cir,27540,4.0,5.0,669500,-78.87381,35.625187,SINGLE_FAMILY,10018.0,669500.0,2748,2019-07-25,431509.0,2023.0,0638725409
208834336,Mannington,WV,SOLD,1268 Black Bear Run Rd,26582,4.0,2.0,445000,-80.37719,39.458767,SINGLE_FAMILY,6367165.0,485000.0,3138,2022-12-02,231120.0,2023.0,2412580032.0001
78314860,New Bern,NC,OTHER,226 Change St,28560,3.0,2.0,438000,-77.037125,35.110157,SINGLE_FAMILY,6534.0,438000.0,2070,2018-08-07,243960.0,2022.0,8003189
78587503,Dubois,PA,OTHER,124 E Washington Ave,15801,5.0,2.0,161800,-78.76155,41.115837,SINGLE_FAMILY,4356.0,161800.0,1749,2020-08-25,11200.0,2023.0,007215982
119463167,Sellersburg,IN,OTHER,4103 Miners Way,47172,3.0,2.0,281200,-85.75027,38.38047,SINGLE_FAMILY,13982.0,281200.0,1800,2013-05-09,257900.0,2023.0,101708900521000031
48915032,Bellevue,WA,RECENTLY_SOLD,16851 NE 14th Place,98008,4.0,3.0,1407500,-122.115555,47.622723,SINGLE_FAMILY,9652.0,1472800.0,3999,2023-10-31,972000.0,2023.0,4040700300
91847559,Augusta,ME,OTHER,35 Hedgenettle Rd,04330,3.0,2.5,338600,-69.74697,44.32431,SINGLE_FAMILY,10454.0,338600.0,2129,2000-04-14,166300.0,2022.0,AUGUM0010AB00016L00000
52761410,Mission,TX,RECENTLY_SOLD,2300 Kirk Ave,78574,3.0,2.0,0,-98.343315,26.233358,SINGLE_FAMILY,8302.0,223100.0,1650,2024-05-30,150864.0,2023.0,O090002006001600
31883053,Canandaigua,NY,OTHER,5669 Rossier Rd,14424,4.0,1.0,393300,-77.3356,42.832554,SINGLE_FAMILY,108900.0,393300.0,2344,2004-08-11,282000.0,2023.0,32240011100131421
9422480,Wayne,PA,OTHER,509 Woodland Ct,19087,4.0,2.5,1328400,-75.38798,40.052475,SINGLE_FAMILY,22172.0,1328400.0,7752,2000-05-02,774400.0,2023.0,36010076200
81525214,Valparaiso,IN,OTHER,2809 Valparaiso St,46383,2.0,1.0,324500,-87.0587,41.49428,SINGLE_FAMILY,217800.0,324500.0,1315,2010-05-07,276200.0,2023.0,640912378016000004
38165401,Southampton,NJ,OTHER,1 Dartmoor Pl,08088,2.0,2.0,319500,-74.705826,39.90261,SINGLE_FAMILY,8049.0,319500.0,2664,2006-07-27,117000.0,2022.0,33027023200001
67294157,Saginaw,MI,OTHER,7525 Geddes Rd,48609,,2.0,217800,-84.06171,43.429737,SINGLE_FAMILY,57499.0,217800.0,1500,2002-06-07,73700.0,2023.0,28123244004001
23553667,Spokane,WA,OTHER,1318 E Wabash Ave,99207,3.0,1.0,262700,-117.39035,47.70197,SINGLE_FAMILY,5227.0,262700.0,1500,2012-05-30,212500.0,2022.0,363241603
35452533,Akron,OH,OTHER,906 Sarcee Ave,44305,3.0,1.0,119600,-81.47206,41.088963,SINGLE_FAMILY,5388.0,119600.0,1294,1996-07-09,23010.0,2022.0,6804260
5979188,Greensboro,NC,OTHER,4405 Pine Vista Ln,27406,4.0,2.0,335300,-79.705154,36.046207,SINGLE_FAMILY,19602.0,335300.0,1850,2017-08-11,259900.0,2023.0,116039
80611969,Gainesville,VA,OTHER,14494 Village High St,20155,2.0,2.5,379600,-77.62312,38.803448,CONDO,1091.0,379600.0,2100,2006-10-31,315800.0,2023.0,739726828501
34020138,Worthington,OH,OTHER,465 Whitney Ave,43085,4.0,2.5,487200,-83.02964,40.10348,SINGLE_FAMILY,8750.0,487200.0,2355,2001-08-29,138640.0,2023.0,10000377200
